$GPGGA,115826.000,5123.7585,N,01223.6242,E,1,09,1.0,132.6,M,46.7,M,,0000*54

$GPGSA,A,3,09,07,06,23,30,16,05,26,29,,,,2.1,1.0,1.8*3E

$GPRMC,115826.000,A,5123.7585,N,01223.6242,E,0.00,81.98,281217,,,A*5A

$GPGGA,115827.000,5123.7585,N,01223.6242,E,1,09,1.0,132.6,M,46.7,M,,0000*55

$GPGSA,A,3,09,07,06,23,30,16,05,26,29,,,,2.1,1.0,1.8*3E

$GPRMC,115827.000,A,5123.7585,N,01223.6242,E,0.00,81.98,281217,,,A*5B

$GPGGA,115828.000,5123.7585,N,01223.6242,E,1,09,1.0,132.6,M,46.7,M,,0000*5A

$GPGSA,A,3,09,07,06,23,30,16,05,26,29,,,,2.1,1.0,1.8*3E

$GPRMC,115828.000,A,5123.7585,N,01223.6242,E,0.00,81.98,281217,,,A*54

$GPGGA,115829.000,5123.7585,N,01223.6242,E,1,09,1.0,132.6,M,46.7,M,,0000*5B

$GPGSA,A,3,09,07,06,23,30,16,05,26,29,,,,2.1,1.0,1.8*3E

$GPGSV,3,1,12,09,73,068,42,07,55,173,40,06,39,228,37,23,38,077,37*75

$GPGSV,3,2,12,30,30,194,33,16,20,057,32,05,19,302,32,26,10,029,31*70

$GPGSV,3,3,12,29,07,334,39,03,04,128,33,04,28,304,34,02,39,277,*70

$GPRMC,115829.000,A,5123.7585,N,01223.6242,E,0.00,81.98,281217,,,A*55

$GPGGA,115830.000,5123.7585,N,01223.6242,E,1,09,1.0,132.6,M,46.7,M,,0000*53

$GPGSA,A,3,09,07,06,23,30,16,05,26,29,,,,2.1,1.0,1.8*3E

$GPRMC,115830.000,A,5123.7585,N,01223.6242,E,0.00,81.98,281217,,,A*5D

$GPGGA,115831.000,5123.7585,N,01223.6242,E,1,09,1.0,132.6,M,46.7,M,,0000*52

$GPGSA,A,3,09,07,06,23,30,16,05,26,29,,,,2.1,1.0,1.8*3E

$GPRMC,115831.000,A,5123.7585,N,01223.6242,E,0.00,81.98,281217,,,A*5C

$GPGGA,115832.000,5123.7585,N,01223.6242,E,1,09,1.0,132.6,M,46.7,M,,0000*51

$GPGSA,A,3,09,07,06,23,30,16,05,26,29,,,,2.1,1.0,1.8*3E

$GPRMC,115832.000,A,5123.7585,N,01223.6242,E,0.00,81.98,281217,,,A*5F

$GPGGA,115833.000,5123.7585,N,01223.6242,E,1,09,1.0,132.6,M,46.7,M,,0000*50

$GPGSA,A,3,09,07,06,23,30,16,05,26,29,,,,2.1,1.0,1.8*3E

$GPRMC,115833.000,A,5123.7585,N,01223.6242,E,0.00,81.98,281217,,,A*5E

$GPGGA,115834.000,5123.7585,N,01223.6242,E,1,09,1.0,132.6,M,46.7,M,,0000*57

$GPGSA,A,3,09,07,06,23,30,16,05,26,29,,,,2.1,1.0,1.8*3E

$GPGSV,3,1,12,09,73,068,41,07,55,173,39,06,39,228,37,23,38,077,37*78

$GPGSV,3,2,12,30,30,194,33,16,20,057,32,05,19,302,31,26,10,029,30*72

$GPGSV,3,3,12,29,07,334,38,03,04,128,32,04,28,304,33,02,39,277,*77

$GPRMC,115834.000,A,5123.7585,N,01223.6242,E,0.00,81.98,281217,,,A*59

$GPGGA,115835.000,5123.7585,N,01223.6242,E,1,09,1.0,132.6,M,46.7,M,,0000*56

$GPGSA,A,3,09,07,06,23,30,16,05,26,29,,,,2.1,1.0,1.8*3E

$GPRMC,115835.000,A,5123.7585,N,01223.6242,E,0.00,81.98,281217,,,A*58

$GPGGA,115836.000,5123.7585,N,01223.6242,E,1,09,1.0,132.6,M,46.7,M,,0000*55

$GPGSA,A,3,09,07,06,23,30,16,05,26,29,,,,2.1,1.0,1.8*3E

$GPRMC,115836.000,A,5123.7585,N,01223.6242,E,0.00,81.98,281217,,,A*5B

$GPGGA,115837.000,5123.7585,N,01223.6242,E,1,09,1.0,132.6,M,46.7,M,,0000*54

$GPGSA,A,3,09,07,06,23,30,16,05,26,29,,,,2.1,1.0,1.8*3E

$GPRMC,115837.000,A,5123.7585,N,01223.6242,E,0.00,81.98,281217,,,A*5A

$GPGGA,115838.000,5123.7585,N,01223.6242,E,1,09,1.0,132.6,M,46.7,M,,0000*5B

$GPGSA,A,3,09,07,06,23,30,16,05,26,29,,,,2.1,1.0,1.8*3E

$GPRMC,115838.000,A,5123.7585,N,01223.6242,E,0.00,81.98,281217,,,A*55

$GPGGA,115839.000,5123.7585,N,01223.6242,E,1,09,1.0,132.6,M,46.7,M,,0000*5A

$GPGSA,A,3,09,07,06,23,30,16,05,26,29,,,,2.1,1.0,1.8*3E

$GPGSV,3,1,12,09,73,068,41,07,55,173,39,06,39,228,37,23,38,077,37*78

$GPGSV,3,2,12,30,30,194,33,16,20,057,31,05,19,303,30,26,10,029,30*71

$GPGSV,3,3,12,29,07,333,38,03,04,128,32,04,28,304,32,02,39,277,*71

$GPRMC,115839.000,A,5123.7585,N,01223.6242,E,0.00,81.98,281217,,,A*54

$GPGGA,115840.000,5123.7585,N,01223.6242,E,1,09,1.0,132.6,M,46.7,M,,0000*54

$GPGSA,A,3,09,07,06,23,30,16,05,26,29,,,,2.1,1.0,1.8*3E

$GPRMC,115840.000,A,5123.7585,N,01223.6242,E,0.00,81.98,281217,,,A*5A

$GPGGA,115841.000,5123.7585,N,01223.6242,E,1,09,1.0,132.6,M,46.7,M,,0000*55

$GPGSA,A,3,09,07,06,23,30,16,05,26,29,,,,2.1,1.0,1.8*3E

$GPRMC,115841.000,A,5123.7585,N,01223.6242,E,0.00,81.98,281217,,,A*5B

$GPGGA,115842.000,5123.7585,N,01223.6242,E,1,09,1.0,132.6,M,46.7,M,,0000*56

$GPGSA,A,3,09,07,06,23,30,16,05,26,29,,,,2.1,1.0,1.8*3E

$GPRMC,115842.000,A,5123.7585,N,01223.6242,E,0.00,81.98,281217,,,A*58

$GPGGA,115843.000,5123.7585,N,01223.6242,E,1,09,1.0,132.6,M,46.7,M,,0000*57

$GPGSA,A,3,09,07,06,23,30,16,05,26,29,,,,2.1,1.0,1.8*3E

$GPRMC,115843.000,A,5123.7585,N,01223.6242,E,0.00,81.98,281217,,,A*59

$GPGGA,115844.000,5123.7585,N,01223.6242,E,1,09,1.0,132.6,M,46.7,M,,0000*50

$GPGSA,A,3,09,07,06,23,30,16,05,26,29,,,,2.1,1.0,1.8*3E

$GPGSV,3,1,12,09,73,068,40,07,55,173,39,06,38,228,36,23,38,077,37*79

$GPGSV,3,2,12,30,30,194,32,16,20,057,31,05,19,303,30,26,10,029,29*78

$GPGSV,3,3,12,29,07,333,38,03,04,128,31,04,28,304,32,02,39,277,*72

$GPRMC,115844.000,A,5123.7585,N,01223.6242,E,0.00,81.98,281217,,,A*5E

$GPGGA,115845.000,5123.7585,N,01223.6242,E,1,09,1.0,132.6,M,46.7,M,,0000*51

$GPGSA,A,3,09,07,06,23,30,16,05,26,29,,,,2.1,1.0,1.8*3E

$GPRMC,115845.000,A,5123.7585,N,01223.6242,E,0.00,81.98,281217,,,A*5F

$GPGGA,115846.000,5123.7585,N,01223.6242,E,1,09,1.0,132.6,M,46.7,M,,0000*52

$GPGSA,A,3,09,07,06,23,30,16,05,26,29,,,,2.1,1.0,1.8*3E

$GPRMC,115846.000,A,5123.7585,N,01223.6242,E,0.00,81.98,281217,,,A*5C

$GPGGA,115847.000,5123.7585,N,01223.6242,E,1,09,1.0,132.6,M,46.7,M,,0000*53

$GPGSA,A,3,09,07,06,23,30,16,05,26,29,,,,2.1,1.0,1.8*3E

$GPRMC,115847.000,A,5123.7585,N,01223.6242,E,0.00,81.98,281217,,,A*5D

$GPGGA,115848.000,5123.7585,N,01223.6242,E,1,09,1.0,132.6,M,46.7,M,,0000*5C

$GPGSA,A,3,09,07,06,23,30,16,05,26,29,,,,2.1,1.0,1.8*3E

$GPRMC,115848.000,A,5123.7585,N,01223.6242,E,0.00,81.98,281217,,,A*52

$GPGGA,115849.000,5123.7585,N,01223.6242,E,1,09,1.0,132.6,M,46.7,M,,0000*5D

$GPGSA,A,3,09,07,06,23,30,16,05,26,29,,,,2.1,1.0,1.8*3E

$GPGSV,3,1,12,09,73,068,40,07,55,173,39,06,38,228,37,23,38,077,37*78

$GPGSV,3,2,12,30,30,194,32,16,20,057,31,05,19,303,30,26,10,029,30*70

$GPGSV,3,3,12,29,07,333,38,03,04,128,31,04,28,304,31,02,39,277,*71

$GPRMC,115849.000,A,5123.7585,N,01223.6242,E,0.00,81.98,281217,,,A*53

$GPGGA,115850.000,5123.7585,N,01223.6242,E,1,09,1.0,132.6,M,46.7,M,,0000*55

$GPGSA,A,3,09,07,06,23,30,16,05,26,29,,,,2.1,1.0,1.8*3E

$GPRMC,115850.000,A,5123.7585,N,01223.6242,E,0.00,81.98,281217,,,A*5B

$GPGGA,115851.000,5123.7585,N,01223.6242,E,1,09,1.0,132.6,M,46.7,M,,0000*54

$GPGSA,A,3,09,07,06,23,30,16,05,26,29,,,,2.1,1.0,1.8*3E

$GPRMC,115851.000,A,5123.7585,N,01223.6242,E,0.00,81.98,281217,,,A*5A

$GPGGA,115852.000,5123.7585,N,01223.6242,E,1,09,1.0,132.6,M,46.7,M,,0000*57

$GPGSA,A,3,09,07,06,23,30,16,05,26,29,,,,2.1,1.0,1.8*3E

$GPRMC,115852.000,A,5123.7585,N,01223.6242,E,0.00,81.98,281217,,,A*59

$GPGGA,115853.000,5123.7585,N,01223.6242,E,1,09,1.0,132.6,M,46.7,M,,0000*56

$GPGSA,A,3,09,07,06,23,30,16,05,26,29,,,,2.1,1.0,1.8*3E

$GPRMC,115853.000,A,5123.7585,N,01223.6242,E,0.00,81.98,281217,,,A*58

$GPGGA,115854.000,5123.7585,N,01223.6242,E,1,09,1.0,132.6,M,46.7,M,,0000*51

$GPGSA,A,3,09,07,06,23,30,16,05,26,29,,,,2.1,1.0,1.8*3E

$GPGSV,3,1,12,09,73,068,40,07,55,173,39,06,38,228,37,23,38,077,37*78

$GPGSV,3,2,12,30,30,194,33,16,20,057,31,05,19,303,30,26,10,029,31*70

$GPGSV,3,3,12,29,07,333,38,03,04,128,31,04,28,304,32,02,39,277,*72

$GPRMC,115854.000,A,5123.7585,N,01223.6242,E,0.00,81.98,281217,,,A*5F

$GPGGA,115855.000,5123.7585,N,01223.6242,E,1,09,1.0,132.6,M,46.7,M,,0000*50

$GPGSA,A,3,09,07,06,23,30,16,05,26,29,,,,2.1,1.0,1.8*3E

$GPRMC,115855.000,A,5123.7585,N,01223.6242,E,0.00,81.98,281217,,,A*5E

$GPGGA,115856.000,5123.7585,N,01223.6242,E,1,09,1.0,132.6,M,46.7,M,,0000*53

$GPGSA,A,3,09,07,06,23,30,16,05,26,29,,,,2.1,1.0,1.8*3E

$GPRMC,115856.000,A,5123.7585,N,01223.6242,E,0.00,81.98,281217,,,A*5D

$GPGGA,115857.000,5123.7585,N,01223.6242,E,1,09,1.0,132.6,M,46.7,M,,0000*52

$GPGSA,A,3,09,07,06,23,30,16,05,26,29,,,,2.1,1.0,1.8*3E

$GPRMC,115857.000,A,5123.7585,N,01223.6242,E,0.00,81.98,281217,,,A*5C

$GPGGA,115858.000,5123.7585,N,01223.6242,E,1,09,1.0,132.6,M,46.7,M,,0000*5D

$GPGSA,A,3,09,07,06,23,30,16,05,26,29,,,,2.1,1.0,1.8*3E

$GPRMC,115858.000,A,5123.7585,N,01223.6242,E,0.00,81.98,281217,,,A*53

$GPGGA,115859.000,5123.7585,N,01223.6242,E,1,09,1.0,132.6,M,46.7,M,,0000*5C

$GPGSA,A,3,09,07,06,23,30,16,05,26,29,,,,2.1,1.0,1.8*3E

$GPGSV,3,1,12,09,73,068,40,07,55,173,39,06,38,228,36,23,38,077,37*79

$GPGSV,3,2,12,30,30,194,33,16,20,057,31,05,19,303,30,26,10,029,31*70

$GPGSV,3,3,12,29,07,333,38,03,04,128,31,04,28,304,32,02,39,277,*72

$GPRMC,115859.000,A,5123.7585,N,01223.6242,E,0.00,81.98,281217,,,A*52

$GPGGA,115900.000,5123.7585,N,01223.6242,E,1,09,1.0,132.6,M,46.7,M,,0000*51

$GPGSA,A,3,09,07,06,23,30,16,05,26,29,,,,2.1,1.0,1.8*3E

$GPRMC,115900.000,A,5123.7585,N,01223.6242,E,0.00,81.98,281217,,,A*5F

$GPGGA,115901.000,5123.7585,N,01223.6242,E,1,09,1.0,132.6,M,46.7,M,,0000*50

$GPGSA,A,3,09,07,06,23,30,16,05,26,29,,,,2.1,1.0,1.8*3E

$GPRMC,115901.000,A,5123.7585,N,01223.6242,E,0.00,81.98,281217,,,A*5E

$GPGGA,115902.000,5123.7585,N,01223.6242,E,1,09,1.0,132.6,M,46.7,M,,0000*53

$GPGSA,A,3,09,07,06,23,30,16,05,26,29,,,,2.1,1.0,1.8*3E

$GPRMC,115902.000,A,5123.7585,N,01223.6242,E,0.00,81.98,281217,,,A*5D

$GPGGA,115903.000,5123.7585,N,01223.6242,E,1,09,1.0,132.6,M,46.7,M,,0000*52

$GPGSA,A,3,09,07,06,23,30,16,05,26,29,,,,2.1,1.0,1.8*3E

$GPRMC,115903.000,A,5123.7585,N,01223.6242,E,0.00,81.98,281217,,,A*5C

$GPGGA,115904.000,5123.7585,N,01223.6242,E,1,09,1.0,132.6,M,46.7,M,,0000*55

$GPGSA,A,3,09,07,06,23,30,16,05,26,29,,,,2.1,1.0,1.8*3E

$GPGSV,3,1,12,09,73,068,40,07,55,173,40,06,38,228,37,23,38,077,36*77

$GPGSV,3,2,12,30,30,194,33,16,20,057,30,05,19,303,30,26,10,029,31*71

$GPGSV,3,3,12,29,07,333,38,03,04,128,31,04,28,304,31,02,39,277,*71

$GPRMC,115904.000,A,5123.7585,N,01223.6242,E,0.00,81.98,281217,,,A*5B

$GPGGA,115905.000,5123.7585,N,01223.6242,E,1,09,1.0,132.6,M,46.7,M,,0000*54

$GPGSA,A,3,09,07,06,23,30,16,05,26,29,,,,2.1,1.0,1.8*3E

$GPRMC,115905.000,A,5123.7585,N,01223.6242,E,0.00,81.98,281217,,,A*5A

$GPGGA,115906.000,5123.7588,N,01223.6243,E,1,09,1.0,132.8,M,46.7,M,,0000*55

$GPGSA,A,3,09,07,06,23,30,16,05,26,29,,,,2.1,1.0,1.8*3E

$GPRMC,115906.000,A,5123.7588,N,01223.6243,E,0.82,81.98,281217,,,A*5F

$GPGGA,115907.000,5123.7590,N,01223.6243,E,1,09,1.0,132.9,M,46.7,M,,0000*5C

$GPGSA,A,3,09,07,06,23,30,16,05,26,29,,,,2.1,1.0,1.8*3E

$GPRMC,115907.000,A,5123.7590,N,01223.6243,E,0.46,81.98,281217,,,A*5F

$GPGGA,115908.000,5123.7590,N,01223.6243,E,1,09,1.0,132.8,M,46.7,M,,0000*52

$GPGSA,A,3,09,07,06,23,30,16,05,26,29,,,,2.1,1.0,1.8*3E

$GPRMC,115908.000,A,5123.7590,N,01223.6243,E,0.06,81.98,281217,,,A*54

$GPGGA,115909.000,5123.7590,N,01223.6242,E,1,09,1.0,132.9,M,46.7,M,,0000*53

$GPGSA,A,3,09,07,06,23,30,16,05,26,29,,,,2.1,1.0,1.8*3E

$GPGSV,3,1,12,09,73,068,40,07,55,173,27,06,38,227,26,23,37,077,37*77

$GPGSV,3,2,12,30,30,194,28,16,20,057,31,05,19,303,35,26,10,029,31*7F

$GPGSV,3,3,12,29,07,333,36,02,39,277,34,03,04,128,35,04,28,304,36*7B

$GPRMC,115909.000,A,5123.7590,N,01223.6242,E,0.51,81.98,281217,,,A*56

$GPGGA,115910.000,5123.7590,N,01223.6242,E,1,09,1.0,132.9,M,46.7,M,,0000*5B

$GPGSA,A,3,09,07,06,23,30,16,05,26,29,,,,2.1,1.0,1.8*3E

$GPRMC,115910.000,A,5123.7590,N,01223.6242,E,0.06,81.98,281217,,,A*5C

$GPGGA,115911.000,5123.7592,N,01223.6243,E,1,09,1.0,133.0,M,46.7,M,,0000*51

$GPGSA,A,3,09,07,06,23,30,16,05,26,29,,,,2.1,1.0,1.8*3E

$GPRMC,115911.000,A,5123.7592,N,01223.6243,E,0.31,81.98,281217,,,A*5A

$GPGGA,115912.000,5123.7595,N,01223.6242,E,1,09,1.0,133.1,M,46.7,M,,0000*55

$GPGSA,A,3,09,07,06,23,30,16,05,26,29,,,,2.1,1.0,1.8*3E

$GPRMC,115912.000,A,5123.7595,N,01223.6242,E,1.87,350.83,281217,,,A*66

$GPGGA,115913.000,5123.7599,N,01223.6239,E,1,09,1.0,133.2,M,46.7,M,,0000*57

$GPGSA,A,3,09,07,06,23,30,16,05,26,29,,,,2.1,1.0,1.8*3E

$GPRMC,115913.000,A,5123.7599,N,01223.6239,E,1.25,339.43,281217,,,A*6C

$GPGGA,115914.000,5123.7601,N,01223.6236,E,1,08,1.1,133.2,M,46.7,M,,0000*5D

$GPGSA,A,3,09,07,06,23,30,16,05,29,,,,,2.2,1.1,1.9*39

$GPGSV,3,1,12,09,73,068,42,07,56,173,33,06,38,227,39,23,37,077,35*7F

$GPGSV,3,2,12,30,30,194,35,16,20,057,27,05,19,303,34,29,07,333,33*76

$GPGSV,3,3,12,02,39,277,35,03,04,128,28,04,28,304,27,26,10,029,18*7B

$GPRMC,115914.000,A,5123.7601,N,01223.6236,E,0.78,339.43,281217,,,A*6F

$GPGGA,115915.000,5123.7601,N,01223.6234,E,1,09,1.0,133.1,M,46.7,M,,0000*5D

$GPGSA,A,3,09,07,06,23,30,16,05,26,29,,,,2.1,1.0,1.8*3E

$GPRMC,115915.000,A,5123.7601,N,01223.6234,E,0.54,339.43,281217,,,A*62

$GPGGA,115916.000,5123.7601,N,01223.6232,E,1,09,1.0,133.1,M,46.7,M,,0000*58

$GPGSA,A,3,09,07,06,23,30,16,05,26,29,,,,2.1,1.0,1.8*3E

$GPRMC,115916.000,A,5123.7601,N,01223.6232,E,0.09,339.43,281217,,,A*6F

$GPGGA,115917.000,5123.7602,N,01223.6232,E,1,09,1.0,133.1,M,46.7,M,,0000*5A

$GPGSA,A,3,09,07,06,23,30,16,05,26,29,,,,2.1,1.0,1.8*3E

$GPRMC,115917.000,A,5123.7602,N,01223.6232,E,0.11,339.43,281217,,,A*64

$GPGGA,115918.000,5123.7601,N,01223.6231,E,1,09,1.0,133.1,M,46.7,M,,0000*55

$GPGSA,A,3,09,07,06,23,30,16,05,26,29,,,,2.1,1.0,1.8*3E

$GPRMC,115918.000,A,5123.7601,N,01223.6231,E,0.28,339.43,281217,,,A*61

$GPGGA,115919.000,5123.7601,N,01223.6231,E,1,08,1.1,133.1,M,46.7,M,,0000*54

$GPGSA,A,3,09,07,06,23,30,16,05,26,,,,,2.1,1.1,1.8*34

$GPGSV,3,1,12,09,73,068,34,07,56,173,38,06,38,227,38,23,37,077,32*73

$GPGSV,3,2,12,30,30,194,31,16,20,057,33,05,19,303,34,26,10,029,27*73

$GPGSV,3,3,12,02,39,277,38,03,04,128,21,04,28,304,20,29,07,333,*70

$GPRMC,115919.000,A,5123.7601,N,01223.6231,E,0.03,339.43,281217,,,A*69

$GPGGA,115920.000,5123.7601,N,01223.6231,E,1,08,1.1,133.1,M,46.7,M,,0000*5E

$GPGSA,A,3,09,07,06,30,16,05,26,29,,,,,2.1,1.1,1.8*3E

$GPRMC,115920.000,A,5123.7601,N,01223.6231,E,0.01,339.43,281217,,,A*61

$GPGGA,115921.000,5123.7601,N,01223.6231,E,1,09,1.0,133.1,M,46.7,M,,0000*5F

$GPGSA,A,3,09,07,06,23,30,16,05,26,29,,,,2.1,1.0,1.8*3E

$GPRMC,115921.000,A,5123.7601,N,01223.6231,E,0.00,339.43,281217,,,A*61

$GPGGA,115922.000,5123.7601,N,01223.6231,E,1,09,1.0,133.1,M,46.7,M,,0000*5C

$GPGSA,A,3,09,07,06,23,30,16,05,26,29,,,,2.1,1.0,1.8*3E

$GPRMC,115922.000,A,5123.7601,N,01223.6231,E,0.00,339.43,281217,,,A*62

$GPGGA,115923.000,5123.7601,N,01223.6231,E,1,09,1.0,133.1,M,46.7,M,,0000*5D

$GPGSA,A,3,09,07,06,23,30,16,05,26,29,,,,2.1,1.0,1.8*3E

$GPRMC,115923.000,A,5123.7601,N,01223.6231,E,0.00,339.43,281217,,,A*63

$GPGGA,115924.000,5123.7601,N,01223.6231,E,1,09,1.0,133.1,M,46.7,M,,0000*5A

$GPGSA,A,3,09,07,06,23,30,16,05,26,29,,,,2.1,1.0,1.8*3E

$GPGSV,3,1,12,09,73,068,34,07,56,173,36,06,38,227,31,23,37,077,30*76

$GPGSV,3,2,12,30,30,194,29,16,20,057,25,05,19,303,34,26,10,029,34*7F

$GPGSV,3,3,12,29,07,333,28,02,39,277,33,03,04,128,15,04,28,304,22*74

$GPRMC,115924.000,A,5123.7601,N,01223.6231,E,0.00,339.43,281217,,,A*64

$GPGGA,115925.000,5123.7601,N,01223.6231,E,1,09,1.0,133.1,M,46.7,M,,0000*5B

$GPGSA,A,3,09,07,06,23,30,16,05,26,29,,,,2.1,1.0,1.8*3E

$GPRMC,115925.000,A,5123.7601,N,01223.6231,E,0.00,339.43,281217,,,A*65

$GPGGA,115926.000,5123.7601,N,01223.6232,E,1,09,1.0,133.2,M,46.7,M,,0000*58

$GPGSA,A,3,09,07,06,23,30,16,05,26,29,,,,2.1,1.0,1.8*3E

$GPRMC,115926.000,A,5123.7601,N,01223.6232,E,0.33,339.43,281217,,,A*65

$GPGGA,115927.000,5123.7601,N,01223.6232,E,1,09,1.0,133.2,M,46.7,M,,0000*59

$GPGSA,A,3,09,07,06,23,30,16,05,26,29,,,,2.1,1.0,1.8*3E

$GPRMC,115927.000,A,5123.7601,N,01223.6232,E,0.09,339.43,281217,,,A*6D

$GPGGA,115928.000,5123.7601,N,01223.6232,E,1,09,1.0,133.2,M,46.7,M,,0000*56

$GPGSA,A,3,09,07,06,23,30,16,05,26,29,,,,2.1,1.0,1.8*3E

$GPRMC,115928.000,A,5123.7601,N,01223.6232,E,0.02,339.43,281217,,,A*69

$GPGGA,115929.000,5123.7601,N,01223.6232,E,1,08,1.1,133.2,M,46.7,M,,0000*57

$GPGSA,A,3,09,07,06,23,30,16,05,29,,,,,2.2,1.1,1.9*39

$GPGSV,3,1,12,09,73,068,32,07,56,173,38,06,38,227,34,23,37,077,25*7F

$GPGSV,3,2,12,30,30,194,28,16,20,057,23,05,19,303,25,29,07,333,32*7F

$GPGSV,3,3,12,02,39,277,36,03,04,128,10,04,28,304,16,26,10,029,30*7B

$GPRMC,115929.000,A,5123.7601,N,01223.6232,E,0.01,339.43,281217,,,A*6B

$GPGGA,115930.000,5123.7601,N,01223.6232,E,1,09,1.0,133.2,M,46.7,M,,0000*5F

$GPGSA,A,3,09,07,06,23,30,16,05,26,29,,,,2.1,1.0,1.8*3E

$GPRMC,115930.000,A,5123.7601,N,01223.6232,E,0.00,339.43,281217,,,A*62

$GPGGA,115931.000,5123.7601,N,01223.6232,E,1,09,1.0,133.2,M,46.7,M,,0000*5E

$GPGSA,A,3,09,07,06,23,30,16,05,26,29,,,,2.1,1.0,1.8*3E

$GPRMC,115931.000,A,5123.7601,N,01223.6232,E,0.00,339.43,281217,,,A*63

$GPGGA,115932.000,5123.7601,N,01223.6232,E,1,09,1.0,133.2,M,46.7,M,,0000*5D

$GPGSA,A,3,09,07,06,23,30,16,05,26,29,,,,2.1,1.0,1.8*3E

$GPRMC,115932.000,A,5123.7601,N,01223.6232,E,0.00,339.43,281217,,,A*60

$GPGGA,115933.000,5123.7601,N,01223.6232,E,1,09,1.0,133.2,M,46.7,M,,0000*5C

$GPGSA,A,3,09,07,06,23,30,16,05,26,29,,,,2.1,1.0,1.8*3E

$GPRMC,115933.000,A,5123.7601,N,01223.6232,E,0.00,339.43,281217,,,A*61

$GPGGA,115934.000,5123.7601,N,01223.6232,E,1,09,1.0,133.2,M,46.7,M,,0000*5B

$GPGSA,A,3,09,07,06,23,30,16,05,26,29,,,,2.1,1.0,1.8*3E

$GPGSV,3,1,12,09,73,068,37,07,56,173,29,06,38,227,33,23,37,077,30*79

$GPGSV,3,2,12,30,30,194,28,16,20,057,24,05,19,303,29,26,10,029,20*76

$GPGSV,3,3,12,29,07,333,24,02,39,277,34,03,04,128,07,04,28,304,16*7B

$GPRMC,115934.000,A,5123.7601,N,01223.6232,E,0.00,339.43,281217,,,A*66

$GPGGA,115935.000,5123.7601,N,01223.6232,E,1,09,1.0,133.2,M,46.7,M,,0000*5A

$GPGSA,A,3,09,07,06,23,30,16,05,26,29,,,,2.1,1.0,1.8*3E

$GPRMC,115935.000,A,5123.7601,N,01223.6232,E,0.00,339.43,281217,,,A*67

$GPGGA,115936.000,5123.7601,N,01223.6232,E,1,09,1.0,133.2,M,46.7,M,,0000*59

$GPGSA,A,3,09,07,06,23,30,16,05,26,29,,,,2.1,1.0,1.8*3E

$GPRMC,115936.000,A,5123.7601,N,01223.6232,E,0.00,339.43,281217,,,A*64

$GPGGA,115937.000,5123.7601,N,01223.6232,E,1,09,1.0,133.2,M,46.7,M,,0000*58

$GPGSA,A,3,09,07,06,23,30,16,05,26,29,,,,2.1,1.0,1.8*3E

$GPRMC,115937.000,A,5123.7601,N,01223.6232,E,0.00,339.43,281217,,,A*65

$GPGGA,115938.000,5123.7601,N,01223.6232,E,1,09,1.0,133.2,M,46.7,M,,0000*57

$GPGSA,A,3,09,07,06,23,30,16,05,26,29,,,,2.1,1.0,1.8*3E

$GPRMC,115938.000,A,5123.7601,N,01223.6232,E,0.00,339.43,281217,,,A*6A

$GPGGA,115939.000,5123.7601,N,01223.6232,E,1,09,1.0,133.2,M,46.7,M,,0000*56

$GPGSA,A,3,09,07,06,23,30,16,05,26,29,,,,2.1,1.0,1.8*3E

$GPGSV,3,1,12,09,72,068,38,07,56,173,30,06,38,227,32,23,37,077,30*7E

$GPGSV,3,2,12,30,30,194,27,16,20,056,25,05,19,303,28,26,10,029,20*78

$GPGSV,3,3,12,29,07,333,25,02,39,277,34,03,04,128,09,04,29,304,16*75

$GPRMC,115939.000,A,5123.7601,N,01223.6232,E,0.00,339.43,281217,,,A*6B

$GPGGA,115940.000,5123.7601,N,01223.6232,E,1,09,1.0,133.2,M,46.7,M,,0000*58

$GPGSA,A,3,09,07,06,23,30,16,05,26,29,,,,2.1,1.0,1.8*3E

$GPRMC,115940.000,A,5123.7601,N,01223.6232,E,0.00,339.43,281217,,,A*65

$GPGGA,115941.000,5123.7601,N,01223.6232,E,1,09,1.0,133.2,M,46.7,M,,0000*59

$GPGSA,A,3,09,07,06,23,30,16,05,26,29,,,,2.1,1.0,1.8*3E

$GPRMC,115941.000,A,5123.7601,N,01223.6232,E,0.00,339.43,281217,,,A*64

$GPGGA,115942.000,5123.7601,N,01223.6232,E,1,09,1.0,133.2,M,46.7,M,,0000*5A

$GPGSA,A,3,09,07,06,23,30,16,05,26,29,,,,2.1,1.0,1.8*3E

$GPRMC,115942.000,A,5123.7601,N,01223.6232,E,0.00,339.43,281217,,,A*67

$GPGGA,115943.000,5123.7601,N,01223.6232,E,1,09,1.0,133.2,M,46.7,M,,0000*5B

$GPGSA,A,3,09,07,06,23,30,16,05,26,29,,,,2.1,1.0,1.8*3E

$GPRMC,115943.000,A,5123.7601,N,01223.6232,E,0.00,339.43,281217,,,A*66

$GPGGA,115944.000,5123.7601,N,01223.6232,E,1,09,1.0,133.2,M,46.7,M,,0000*5C

$GPGSA,A,3,09,07,06,23,30,16,05,26,29,,,,2.1,1.0,1.8*3E

$GPGSV,3,1,12,09,72,068,38,07,56,173,18,06,38,227,32,23,37,077,31*75

$GPGSV,3,2,12,30,30,194,28,16,20,056,26,05,19,303,29,26,10,029,20*75

$GPGSV,3,3,12,29,07,333,25,02,39,277,33,03,04,128,11,04,29,304,15*78

$GPRMC,115944.000,A,5123.7601,N,01223.6232,E,0.00,339.43,281217,,,A*61

$GPGGA,115945.000,5123.7601,N,01223.6232,E,1,09,1.0,133.2,M,46.7,M,,0000*5D

$GPGSA,A,3,09,07,06,23,30,16,05,26,29,,,,2.1,1.0,1.8*3E

$GPRMC,115945.000,A,5123.7601,N,01223.6232,E,0.00,339.43,281217,,,A*60

$GPGGA,115946.000,5123.7601,N,01223.6232,E,1,09,1.0,133.2,M,46.7,M,,0000*5E

$GPGSA,A,3,09,07,06,23,30,16,05,26,29,,,,2.1,1.0,1.8*3E

$GPRMC,115946.000,A,5123.7601,N,01223.6232,E,0.00,339.43,281217,,,A*63

$GPGGA,115947.000,5123.7601,N,01223.6232,E,1,09,1.0,133.2,M,46.7,M,,0000*5F

$GPGSA,A,3,09,07,06,23,30,16,05,26,29,,,,2.1,1.0,1.8*3E

$GPRMC,115947.000,A,5123.7601,N,01223.6232,E,0.00,339.43,281217,,,A*62

$GPGGA,115948.000,5123.7601,N,01223.6232,E,1,09,1.0,133.2,M,46.7,M,,0000*50

$GPGSA,A,3,09,07,06,23,30,16,05,26,29,,,,2.1,1.0,1.8*3E

$GPRMC,115948.000,A,5123.7601,N,01223.6232,E,0.00,339.43,281217,,,A*6D

$GPGGA,115949.000,5123.7601,N,01223.6232,E,1,09,1.0,133.2,M,46.7,M,,0000*51

$GPGSA,A,3,09,07,06,23,30,16,05,26,29,,,,2.1,1.0,1.8*3E

$GPGSV,3,1,12,09,72,068,30,07,56,173,17,06,38,227,20,23,37,077,32*72

$GPGSV,3,2,12,30,30,194,33,16,20,056,26,05,19,303,32,26,10,029,31*75

$GPGSV,3,3,12,29,07,333,14,02,39,277,26,03,04,128,13,04,29,304,17*7E

$GPRMC,115949.000,A,5123.7601,N,01223.6232,E,0.00,339.43,281217,,,A*6C

$GPGGA,115950.000,5123.7601,N,01223.6232,E,1,09,1.1,133.2,M,46.7,M,,0000*58

$GPGSA,A,3,09,07,06,23,30,16,05,26,29,,,,2.1,1.1,1.8*3F

$GPRMC,115950.000,A,5123.7601,N,01223.6232,E,0.00,339.43,281217,,,A*64

$GPGGA,115951.000,5123.7601,N,01223.6232,E,1,09,1.1,133.2,M,46.7,M,,0000*59

$GPGSA,A,3,09,07,06,23,30,16,05,26,29,,,,2.1,1.1,1.8*3F

$GPRMC,115951.000,A,5123.7601,N,01223.6232,E,0.00,339.43,281217,,,A*65

$GPGGA,115952.000,5123.7601,N,01223.6232,E,1,09,1.1,133.2,M,46.7,M,,0000*5A

$GPGSA,A,3,09,07,06,23,30,16,05,26,29,,,,2.1,1.1,1.8*3F

$GPRMC,115952.000,A,5123.7601,N,01223.6232,E,0.00,339.43,281217,,,A*66

$GPGGA,115953.000,5123.7601,N,01223.6232,E,1,09,1.1,133.2,M,46.7,M,,0000*5B

$GPGSA,A,3,09,07,06,23,30,16,05,26,29,,,,2.1,1.1,1.8*3F

$GPRMC,115953.000,A,5123.7601,N,01223.6232,E,0.00,339.43,281217,,,A*67

$GPGGA,115954.000,5123.7601,N,01223.6232,E,1,09,1.1,133.2,M,46.7,M,,0000*5C

$GPGSA,A,3,09,07,06,23,30,16,05,26,29,,,,2.1,1.1,1.8*3F

$GPGSV,3,1,12,09,72,068,31,07,56,173,27,06,38,227,21,23,37,077,32*71

$GPGSV,3,2,12,30,30,194,29,16,20,056,27,05,19,303,32,26,10,029,30*7E

$GPGSV,3,3,12,29,07,333,10,02,39,277,27,03,04,128,15,04,29,304,18*72

$GPRMC,115954.000,A,5123.7601,N,01223.6232,E,0.00,339.43,281217,,,A*60

$GPGGA,115955.000,5123.7601,N,01223.6232,E,1,09,1.1,133.2,M,46.7,M,,0000*5D

$GPGSA,A,3,09,07,06,23,30,16,05,26,29,,,,2.1,1.1,1.8*3F

$GPRMC,115955.000,A,5123.7601,N,01223.6232,E,0.00,339.43,281217,,,A*61

$GPGGA,115956.000,5123.7601,N,01223.6232,E,1,09,1.1,133.2,M,46.7,M,,0000*5E

$GPGSA,A,3,09,07,06,23,30,16,05,26,29,,,,2.1,1.1,1.8*3F

$GPRMC,115956.000,A,5123.7601,N,01223.6232,E,0.00,339.43,281217,,,A*62

$GPGGA,115957.000,5123.7601,N,01223.6232,E,1,09,1.1,133.2,M,46.7,M,,0000*5F

$GPGSA,A,3,09,07,06,23,30,16,05,26,29,,,,2.1,1.1,1.8*3F

$GPRMC,115957.000,A,5123.7601,N,01223.6232,E,0.00,339.43,281217,,,A*63

$GPGGA,115958.000,5123.7601,N,01223.6232,E,1,09,1.1,133.2,M,46.7,M,,0000*50

$GPGSA,A,3,09,07,06,23,30,16,05,26,29,,,,2.1,1.1,1.8*3F

$GPRMC,115958.000,A,5123.7601,N,01223.6232,E,0.00,339.43,281217,,,A*6C

$GPGGA,115959.000,5123.7601,N,01223.6232,E,1,09,1.1,133.2,M,46.7,M,,0000*51

$GPGSA,A,3,09,07,06,23,30,16,05,26,29,,,,2.1,1.1,1.8*3F

$GPGSV,3,1,12,09,72,068,32,07,56,173,27,06,38,227,22,23,37,077,32*71

$GPGSV,3,2,12,30,30,194,30,16,20,056,28,05,19,303,32,26,10,029,30*79

$GPGSV,3,3,12,29,07,333,11,02,39,277,27,03,04,128,17,04,29,304,18*71

$GPRMC,115959.000,A,5123.7601,N,01223.6232,E,0.00,339.43,281217,,,A*6D

$GPGGA,120000.000,5123.7601,N,01223.6232,E,1,09,1.1,133.2,M,46.7,M,,0000*52

$GPGSA,A,3,09,07,06,23,30,16,05,26,29,,,,2.1,1.1,1.8*3F

$GPRMC,120000.000,A,5123.7601,N,01223.6232,E,0.00,339.43,281217,,,A*6E

$GPGGA,120001.000,5123.7601,N,01223.6232,E,1,09,1.1,133.2,M,46.7,M,,0000*53

$GPGSA,A,3,09,07,06,23,30,16,05,26,29,,,,2.1,1.1,1.8*3F

$GPRMC,120001.000,A,5123.7601,N,01223.6232,E,0.00,339.43,281217,,,A*6F

$GPGGA,120002.000,5123.7601,N,01223.6232,E,1,09,1.1,133.2,M,46.7,M,,0000*50

$GPGSA,A,3,09,07,06,23,30,16,05,26,29,,,,2.1,1.1,1.8*3F

$GPRMC,120002.000,A,5123.7601,N,01223.6232,E,0.00,339.43,281217,,,A*6C

$GPGGA,120003.000,5123.7601,N,01223.6232,E,1,09,1.1,133.2,M,46.7,M,,0000*51

$GPGSA,A,3,09,07,06,23,30,16,05,26,29,,,,2.1,1.1,1.8*3F

$GPRMC,120003.000,A,5123.7601,N,01223.6232,E,0.00,339.43,281217,,,A*6D

$GPGGA,120004.000,5123.7601,N,01223.6232,E,1,09,1.1,133.2,M,46.7,M,,0000*56

$GPGSA,A,3,09,07,06,23,30,16,05,26,29,,,,2.1,1.1,1.8*3F

$GPGSV,3,1,12,09,72,068,33,07,56,173,27,06,38,227,23,23,37,077,32*71

$GPGSV,3,2,12,30,30,194,31,16,20,056,28,05,19,303,32,26,10,029,31*79

$GPGSV,3,3,12,29,07,333,11,02,39,277,27,03,04,128,16,04,29,304,17*7F

$GPRMC,120004.000,A,5123.7601,N,01223.6232,E,0.00,339.43,281217,,,A*6A

$GPGGA,120005.000,5123.7601,N,01223.6232,E,1,09,1.1,133.2,M,46.7,M,,0000*57

$GPGSA,A,3,09,07,06,23,30,16,05,26,29,,,,2.1,1.1,1.8*3F

$GPRMC,120005.000,A,5123.7601,N,01223.6232,E,0.00,339.43,281217,,,A*6B

$GPGGA,120006.000,5123.7601,N,01223.6232,E,1,09,1.1,133.2,M,46.7,M,,0000*54

$GPGSA,A,3,09,07,06,23,30,16,05,26,29,,,,2.1,1.1,1.8*3F

$GPRMC,120006.000,A,5123.7601,N,01223.6232,E,0.00,339.43,281217,,,A*68

$GPGGA,120007.000,5123.7601,N,01223.6232,E,1,09,1.1,133.2,M,46.7,M,,0000*55

$GPGSA,A,3,09,07,06,23,30,16,05,26,29,,,,2.1,1.1,1.8*3F

$GPRMC,120007.000,A,5123.7601,N,01223.6232,E,0.00,339.43,281217,,,A*69

$GPGGA,120008.000,5123.7601,N,01223.6232,E,1,09,1.1,133.2,M,46.7,M,,0000*5A

$GPGSA,A,3,09,07,06,23,30,16,05,26,29,,,,2.1,1.1,1.8*3F

$GPRMC,120008.000,A,5123.7601,N,01223.6232,E,0.00,339.43,281217,,,A*66

$GPGGA,120009.000,5123.7601,N,01223.6232,E,1,09,1.1,133.2,M,46.7,M,,0000*5B

$GPGSA,A,3,09,07,06,23,30,16,05,26,29,,,,2.1,1.1,1.8*3F

$GPGSV,3,1,12,09,72,068,33,07,56,173,27,06,38,227,23,23,37,077,32*71

$GPGSV,3,2,12,30,30,194,31,16,20,056,29,05,19,303,32,26,10,029,31*78

$GPGSV,3,3,12,29,07,333,09,02,39,277,28,03,04,128,12,04,29,304,17*7D

$GPRMC,120009.000,A,5123.7601,N,01223.6232,E,0.00,339.43,281217,,,A*67

$GPGGA,120010.000,5123.7601,N,01223.6232,E,1,09,1.1,133.2,M,46.7,M,,0000*53

$GPGSA,A,3,09,07,06,23,30,16,05,26,29,,,,2.1,1.1,1.8*3F

$GPRMC,120010.000,A,5123.7601,N,01223.6232,E,0.00,339.43,281217,,,A*6F

$GPGGA,120011.000,5123.7601,N,01223.6232,E,1,09,1.1,133.2,M,46.7,M,,0000*52

$GPGSA,A,3,09,07,06,23,30,16,05,26,29,,,,2.1,1.1,1.8*3F

$GPRMC,120011.000,A,5123.7601,N,01223.6232,E,0.00,339.43,281217,,,A*6E

$GPGGA,120012.000,5123.7601,N,01223.6232,E,1,08,1.1,133.2,M,46.7,M,,0000*50

$GPGSA,A,3,09,07,06,23,30,16,05,26,,,,,2.2,1.1,1.8*37

$GPRMC,120012.000,A,5123.7601,N,01223.6232,E,0.00,339.43,281217,,,A*6D

$GPGGA,120013.000,5123.7601,N,01223.6232,E,1,08,1.1,133.2,M,46.7,M,,0000*51

$GPGSA,A,3,09,07,06,23,30,16,05,26,,,,,2.2,1.1,1.8*37

$GPRMC,120013.000,A,5123.7601,N,01223.6232,E,0.00,339.43,281217,,,A*6C

$GPGGA,120014.000,5123.7601,N,01223.6232,E,1,08,1.1,133.2,M,46.7,M,,0000*56

$GPGSA,A,3,09,07,06,23,30,16,05,26,,,,,2.2,1.1,1.8*37

$GPGSV,3,1,12,09,72,069,33,07,56,172,27,06,38,227,24,23,37,077,33*77

$GPGSV,3,2,12,30,31,194,30,16,20,056,30,05,20,303,32,26,10,028,31*7B

$GPGSV,3,3,12,02,39,276,28,03,03,128,14,04,29,303,16,29,07,333,06*74

$GPRMC,120014.000,A,5123.7601,N,01223.6232,E,0.00,339.43,281217,,,A*6B

$GPGGA,120015.000,5123.7601,N,01223.6232,E,1,08,1.1,133.2,M,46.7,M,,0000*57

$GPGSA,A,3,09,07,06,23,30,16,05,26,,,,,2.2,1.1,1.8*37

$GPRMC,120015.000,A,5123.7601,N,01223.6232,E,0.00,339.43,281217,,,A*6A

$GPGGA,120016.000,5123.7601,N,01223.6232,E,1,08,1.1,133.2,M,46.7,M,,0000*54

$GPGSA,A,3,09,07,06,23,30,16,05,26,,,,,2.2,1.1,1.8*37

$GPRMC,120016.000,A,5123.7601,N,01223.6232,E,0.00,339.43,281217,,,A*69

$GPGGA,120017.000,5123.7601,N,01223.6232,E,1,08,1.1,133.2,M,46.7,M,,0000*55

$GPGSA,A,3,09,07,06,23,30,16,05,26,,,,,2.2,1.1,1.8*37

$GPRMC,120017.000,A,5123.7601,N,01223.6232,E,0.00,339.43,281217,,,A*68

$GPGGA,120018.000,5123.7601,N,01223.6232,E,1,08,1.1,133.2,M,46.7,M,,0000*5A

$GPGSA,A,3,09,07,06,23,30,16,05,26,,,,,2.2,1.1,1.8*37

$GPRMC,120018.000,A,5123.7601,N,01223.6232,E,0.00,339.43,281217,,,A*67

$GPGGA,120019.000,5123.7601,N,01223.6232,E,1,08,1.1,133.2,M,46.7,M,,0000*5B

$GPGSA,A,3,09,07,06,23,30,16,05,26,,,,,2.2,1.1,1.8*37

$GPGSV,3,1,12,09,72,069,33,07,56,172,27,06,38,227,24,23,37,077,33*77

$GPGSV,3,2,12,30,31,194,26,16,20,056,30,05,20,303,32,26,10,028,31*7C

$GPGSV,3,3,12,02,39,276,28,03,03,128,15,04,29,303,16,29,07,333,04*77

$GPRMC,120019.000,A,5123.7601,N,01223.6232,E,0.00,339.43,281217,,,A*66

$GPGGA,120020.000,5123.7601,N,01223.6232,E,1,08,1.1,133.2,M,46.7,M,,0000*51

$GPGSA,A,3,09,07,06,23,30,16,05,26,,,,,2.2,1.1,1.8*37

$GPRMC,120020.000,A,5123.7601,N,01223.6232,E,0.00,339.43,281217,,,A*6C

$GPGGA,120021.000,5123.7601,N,01223.6232,E,1,09,1.1,133.2,M,46.7,M,,0000*51

$GPGSA,A,3,09,07,06,23,30,16,05,26,29,,,,2.1,1.1,1.8*3F

$GPRMC,120021.000,A,5123.7601,N,01223.6232,E,0.00,339.43,281217,,,A*6D

$GPGGA,120022.000,5123.7601,N,01223.6232,E,1,08,1.1,133.2,M,46.7,M,,0000*53

$GPGSA,A,3,09,07,06,23,30,16,05,26,,,,,2.2,1.1,1.8*37

$GPRMC,120022.000,A,5123.7601,N,01223.6232,E,0.00,339.43,281217,,,A*6E

$GPGGA,120023.000,5123.7601,N,01223.6232,E,1,08,1.1,133.2,M,46.7,M,,0000*52

$GPGSA,A,3,09,07,06,23,30,16,05,26,,,,,2.2,1.1,1.8*37

$GPRMC,120023.000,A,5123.7601,N,01223.6232,E,0.00,339.43,281217,,,A*6F

$GPGGA,120024.000,5123.7601,N,01223.6232,E,1,08,1.1,133.2,M,46.7,M,,0000*55

$GPGSA,A,3,09,07,06,23,30,16,05,26,,,,,2.2,1.1,1.8*37

$GPGSV,3,1,12,09,72,069,34,07,56,172,27,06,38,227,24,23,37,077,33*70

$GPGSV,3,2,12,30,31,194,27,16,20,056,30,05,20,303,32,26,10,028,31*7D

$GPGSV,3,3,12,02,39,276,28,03,03,128,16,29,07,333,04,04,29,303,*73

$GPRMC,120024.000,A,5123.7601,N,01223.6232,E,0.00,339.43,281217,,,A*68

$GPGGA,120025.000,5123.7601,N,01223.6232,E,1,09,1.0,133.2,M,46.7,M,,0000*54

$GPGSA,A,3,09,07,06,23,30,16,05,26,02,,,,2.0,1.0,1.8*36

$GPRMC,120025.000,A,5123.7601,N,01223.6232,E,0.00,339.43,281217,,,A*69

$GPGGA,120026.000,5123.7601,N,01223.6232,E,1,09,1.0,133.2,M,46.7,M,,0000*57

$GPGSA,A,3,09,07,02,06,23,30,16,05,26,,,,2.0,1.0,1.8*36

$GPRMC,120026.000,A,5123.7601,N,01223.6232,E,0.00,339.43,281217,,,A*6A

$GPGGA,120027.000,5123.7601,N,01223.6232,E,1,09,1.0,133.2,M,46.7,M,,0000*56

$GPGSA,A,3,09,07,02,06,23,30,16,05,26,,,,2.0,1.0,1.8*36

$GPRMC,120027.000,A,5123.7601,N,01223.6232,E,0.00,339.43,281217,,,A*6B

$GPGGA,120028.000,5123.7601,N,01223.6232,E,1,09,1.0,133.2,M,46.7,M,,0000*59

$GPGSA,A,3,09,07,02,06,23,30,16,05,26,,,,2.0,1.0,1.8*36

$GPRMC,120028.000,A,5123.7601,N,01223.6232,E,0.00,339.43,281217,,,A*64

$GPGGA,120029.000,5123.7601,N,01223.6232,E,1,09,1.0,133.2,M,46.7,M,,0000*58

$GPGSA,A,3,09,07,02,06,23,30,16,05,26,,,,2.0,1.0,1.8*36

$GPGSV,3,1,12,09,72,069,34,07,56,172,27,02,38,276,28,06,38,227,24*75

$GPGSV,3,2,12,23,37,077,33,30,31,194,28,16,20,056,30,05,20,303,32*7A

$GPGSV,3,3,12,26,10,028,31,03,03,128,16,29,06,333,04,04,29,303,*7E

$GPRMC,120029.000,A,5123.7601,N,01223.6232,E,0.00,339.43,281217,,,A*65

$GPGGA,120030.000,5123.7601,N,01223.6232,E,1,09,1.0,133.2,M,46.7,M,,0000*50

$GPGSA,A,3,09,07,02,06,23,30,16,05,26,,,,2.0,1.0,1.8*36

$GPRMC,120030.000,A,5123.7601,N,01223.6232,E,0.00,339.43,281217,,,A*6D

$GPGGA,120031.000,5123.7601,N,01223.6232,E,1,10,1.0,133.2,M,46.7,M,,0000*59

$GPGSA,A,3,09,07,02,06,23,30,16,05,26,29,,,2.0,1.0,1.7*32

$GPRMC,120031.000,A,5123.7601,N,01223.6232,E,0.00,339.43,281217,,,A*6C

$GPGGA,120032.000,5123.7601,N,01223.6232,E,1,10,1.0,133.2,M,46.7,M,,0000*5A

$GPGSA,A,3,09,07,02,06,23,30,16,05,26,29,,,2.0,1.0,1.7*32

$GPRMC,120032.000,A,5123.7601,N,01223.6232,E,0.00,339.43,281217,,,A*6F

$GPGGA,120033.000,5123.7601,N,01223.6232,E,1,10,1.0,133.2,M,46.7,M,,0000*5B

$GPGSA,A,3,09,07,02,06,23,30,16,05,26,29,,,2.0,1.0,1.7*32

$GPRMC,120033.000,A,5123.7601,N,01223.6232,E,0.00,339.43,281217,,,A*6E

$GPGGA,120034.000,5123.7601,N,01223.6232,E,1,10,1.0,133.2,M,46.7,M,,0000*5C

$GPGSA,A,3,09,07,02,06,23,30,16,05,26,29,,,2.0,1.0,1.7*32

$GPGSV,3,1,12,09,72,069,34,07,56,172,27,02,38,276,28,06,38,227,23*72

$GPGSV,3,2,12,23,37,077,33,30,31,194,28,16,20,056,29,05,20,303,32*72

$GPGSV,3,3,12,26,10,028,31,29,06,333,11,03,03,128,15,04,29,303,*79

$GPRMC,120034.000,A,5123.7601,N,01223.6232,E,0.00,339.43,281217,,,A*69

$GPGGA,120035.000,5123.7601,N,01223.6232,E,1,10,1.0,133.2,M,46.7,M,,0000*5D

$GPGSA,A,3,09,07,02,06,23,30,16,05,26,29,,,2.0,1.0,1.7*32

$GPRMC,120035.000,A,5123.7601,N,01223.6232,E,0.00,339.43,281217,,,A*68

$GPGGA,120036.000,5123.7601,N,01223.6232,E,1,10,1.0,133.2,M,46.7,M,,0000*5E

$GPGSA,A,3,09,07,02,06,23,30,16,05,26,29,,,2.0,1.0,1.7*32

$GPRMC,120036.000,A,5123.7601,N,01223.6232,E,0.00,339.43,281217,,,A*6B

$GPGGA,120037.000,5123.7601,N,01223.6232,E,1,09,1.0,133.2,M,46.7,M,,0000*57

$GPGSA,A,3,09,07,02,06,23,30,16,05,26,,,,2.0,1.0,1.8*36

$GPRMC,120037.000,A,5123.7601,N,01223.6232,E,0.00,339.43,281217,,,A*6A

$GPGGA,120038.000,5123.7601,N,01223.6232,E,1,09,1.0,133.2,M,46.7,M,,0000*58

$GPGSA,A,3,09,07,02,06,23,30,16,05,26,,,,2.0,1.0,1.8*36

$GPRMC,120038.000,A,5123.7601,N,01223.6232,E,0.00,339.43,281217,,,A*65

$GPGGA,120039.000,5123.7601,N,01223.6232,E,1,09,1.0,133.2,M,46.7,M,,0000*59

$GPGSA,A,3,09,07,02,06,23,30,16,05,26,,,,2.0,1.0,1.8*36

$GPGSV,3,1,12,09,72,069,33,07,56,172,27,02,38,276,28,06,38,227,24*72

$GPGSV,3,2,12,23,37,077,33,30,31,194,29,16,20,056,29,05,20,303,32*73

$GPGSV,3,3,12,26,10,028,31,03,03,128,08,29,06,333,04,04,29,303,*71

$GPRMC,120039.000,A,5123.7601,N,01223.6232,E,0.00,339.43,281217,,,A*64

$GPGGA,120040.000,5123.7601,N,01223.6232,E,1,09,1.0,133.2,M,46.7,M,,0000*57

$GPGSA,A,3,09,07,02,06,23,30,16,05,26,,,,2.0,1.0,1.8*36

$GPRMC,120040.000,A,5123.7601,N,01223.6232,E,0.00,339.43,281217,,,A*6A

$GPGGA,120041.000,5123.7601,N,01223.6232,E,1,09,1.0,133.2,M,46.7,M,,0000*56

$GPGSA,A,3,09,07,02,06,23,30,16,05,26,,,,2.0,1.0,1.8*36

$GPRMC,120041.000,A,5123.7601,N,01223.6232,E,0.00,339.43,281217,,,A*6B

$GPGGA,120042.000,5123.7601,N,01223.6232,E,1,09,1.0,133.2,M,46.7,M,,0000*55

$GPGSA,A,3,09,07,02,06,23,30,16,05,26,,,,2.0,1.0,1.8*36

$GPRMC,120042.000,A,5123.7601,N,01223.6232,E,0.00,339.43,281217,,,A*68

$GPGGA,120043.000,5123.7601,N,01223.6232,E,1,09,1.0,133.2,M,46.7,M,,0000*54

$GPGSA,A,3,09,07,02,06,23,30,16,05,26,,,,2.0,1.0,1.8*36

$GPRMC,120043.000,A,5123.7601,N,01223.6232,E,0.00,339.43,281217,,,A*69

$GPGGA,120044.000,5123.7601,N,01223.6232,E,1,09,1.0,133.2,M,46.7,M,,0000*53

$GPGSA,A,3,09,07,02,06,23,30,16,05,26,,,,2.0,1.0,1.8*36

$GPGSV,3,1,12,09,72,069,33,07,56,172,27,02,38,276,28,06,38,227,24*72

$GPGSV,3,2,12,23,37,077,33,30,31,194,29,16,20,056,29,05,20,303,32*73

$GPGSV,3,3,12,26,10,028,31,03,03,128,09,29,06,333,15,04,29,303,*70

$GPRMC,120044.000,A,5123.7601,N,01223.6232,E,0.00,339.43,281217,,,A*6E

$GPGGA,120045.000,5123.7601,N,01223.6232,E,1,09,1.0,133.2,M,46.7,M,,0000*52

$GPGSA,A,3,09,07,02,06,23,30,16,05,26,,,,2.0,1.0,1.8*36

$GPRMC,120045.000,A,5123.7601,N,01223.6232,E,0.00,339.43,281217,,,A*6F

$GPGGA,120046.000,5123.7601,N,01223.6232,E,1,09,1.0,133.2,M,46.7,M,,0000*51

$GPGSA,A,3,09,07,02,06,23,30,16,05,26,,,,2.0,1.0,1.8*36

$GPRMC,120046.000,A,5123.7601,N,01223.6232,E,0.00,339.43,281217,,,A*6C

$GPGGA,120047.000,5123.7601,N,01223.6232,E,1,09,1.0,133.2,M,46.7,M,,0000*50

$GPGSA,A,3,09,07,02,06,23,30,16,05,26,,,,2.0,1.0,1.8*36

$GPRMC,120047.000,A,5123.7601,N,01223.6232,E,0.00,339.43,281217,,,A*6D

$GPGGA,120048.000,5123.7601,N,01223.6232,E,1,09,1.0,133.2,M,46.7,M,,0000*5F

$GPGSA,A,3,09,07,02,06,23,30,16,05,26,,,,2.0,1.0,1.8*36

$GPRMC,120048.000,A,5123.7601,N,01223.6232,E,0.00,339.43,281217,,,A*62

$GPGGA,120049.000,5123.7601,N,01223.6232,E,1,09,1.0,133.2,M,46.7,M,,0000*5E

$GPGSA,A,3,09,07,02,06,23,30,16,05,26,,,,2.0,1.0,1.8*36

$GPGSV,3,1,12,09,72,069,34,07,56,172,27,02,38,276,28,06,38,227,24*75

$GPGSV,3,2,12,23,37,077,33,30,31,194,29,16,20,056,29,05,20,303,32*73

$GPGSV,3,3,12,26,10,028,31,03,03,128,13,29,06,333,19,04,29,303,*77

$GPRMC,120049.000,A,5123.7601,N,01223.6232,E,0.00,339.43,281217,,,A*63

$GPGGA,120050.000,5123.7601,N,01223.6232,E,1,09,1.0,133.2,M,46.7,M,,0000*56

$GPGSA,A,3,09,07,02,06,23,30,16,05,26,,,,2.1,1.0,1.8*37

$GPRMC,120050.000,A,5123.7601,N,01223.6232,E,0.00,339.43,281217,,,A*6B

$GPGGA,120051.000,5123.7601,N,01223.6232,E,1,09,1.0,133.2,M,46.7,M,,0000*57

$GPGSA,A,3,09,07,02,06,23,30,16,05,26,,,,2.1,1.0,1.8*37

$GPRMC,120051.000,A,5123.7601,N,01223.6232,E,0.00,339.43,281217,,,A*6A

$GPGGA,120052.000,5123.7601,N,01223.6232,E,1,09,1.0,133.2,M,46.7,M,,0000*54

$GPGSA,A,3,09,07,02,06,23,30,16,05,26,,,,2.1,1.0,1.8*37

$GPRMC,120052.000,A,5123.7601,N,01223.6232,E,0.00,339.43,281217,,,A*69

$GPGGA,120053.000,5123.7601,N,01223.6232,E,1,09,1.0,133.2,M,46.7,M,,0000*55

$GPGSA,A,3,09,07,02,06,23,30,16,05,26,,,,2.1,1.0,1.8*37

$GPRMC,120053.000,A,5123.7601,N,01223.6232,E,0.00,339.43,281217,,,A*68

$GPGGA,120054.000,5123.7601,N,01223.6232,E,1,09,1.0,133.2,M,46.7,M,,0000*52

$GPGSA,A,3,09,07,02,06,23,30,16,05,26,,,,2.1,1.0,1.8*37

$GPGSV,3,1,12,09,72,069,34,07,56,172,28,02,38,276,28,06,38,227,25*7B

$GPGSV,3,2,12,23,37,077,34,30,31,194,30,16,20,056,30,05,20,303,32*74

$GPGSV,3,3,12,26,10,028,32,03,03,128,15,04,29,303,,29,06,333,*7A

$GPRMC,120054.000,A,5123.7601,N,01223.6232,E,0.00,339.43,281217,,,A*6F

$GPGGA,120055.000,5123.7601,N,01223.6232,E,1,09,1.0,133.2,M,46.7,M,,0000*53

$GPGSA,A,3,09,07,02,06,23,30,16,05,26,,,,2.1,1.0,1.8*37

$GPRMC,120055.000,A,5123.7601,N,01223.6232,E,0.00,339.43,281217,,,A*6E

$GPGGA,120056.000,5123.7601,N,01223.6232,E,1,09,1.0,133.2,M,46.7,M,,0000*50

$GPGSA,A,3,09,07,02,06,23,30,16,05,26,,,,2.1,1.0,1.8*37

$GPRMC,120056.000,A,5123.7601,N,01223.6232,E,0.00,339.43,281217,,,A*6D

$GPGGA,120057.000,5123.7601,N,01223.6232,E,1,09,1.0,133.2,M,46.7,M,,0000*51

$GPGSA,A,3,09,07,02,06,23,30,16,05,26,,,,2.1,1.0,1.8*37

$GPRMC,120057.000,A,5123.7601,N,01223.6232,E,0.00,339.43,281217,,,A*6C

$GPGGA,120058.000,5123.7601,N,01223.6232,E,1,09,1.0,133.2,M,46.7,M,,0000*5E

$GPGSA,A,3,09,07,02,06,23,30,16,05,26,,,,2.1,1.0,1.8*37

$GPRMC,120058.000,A,5123.7601,N,01223.6232,E,0.00,339.43,281217,,,A*63

$GPGGA,120059.000,5123.7601,N,01223.6232,E,1,09,1.0,133.2,M,46.7,M,,0000*5F

$GPGSA,A,3,09,07,02,06,23,30,16,05,26,,,,2.1,1.0,1.8*37

$GPGSV,3,1,12,09,72,069,35,07,56,172,28,02,38,276,29,06,38,227,25*7B

$GPGSV,3,2,12,23,37,077,34,30,31,194,30,16,20,056,31,05,20,303,33*74

$GPGSV,3,3,12,26,10,028,32,03,03,128,16,29,06,333,21,04,29,303,*7A

$GPRMC,120059.000,A,5123.7601,N,01223.6232,E,0.00,339.43,281217,,,A*62

$GPGGA,120100.000,5123.7601,N,01223.6232,E,1,09,1.0,133.2,M,46.7,M,,0000*52

$GPGSA,A,3,09,07,02,06,23,30,16,05,26,,,,2.1,1.0,1.8*37

$GPRMC,120100.000,A,5123.7601,N,01223.6232,E,0.00,339.43,281217,,,A*6F

$GPGGA,120101.000,5123.7601,N,01223.6232,E,1,09,1.0,133.2,M,46.7,M,,0000*53

$GPGSA,A,3,09,07,02,06,23,30,16,05,26,,,,2.1,1.0,1.8*37

$GPRMC,120101.000,A,5123.7601,N,01223.6232,E,0.00,339.43,281217,,,A*6E

$GPGGA,120102.000,5123.7601,N,01223.6232,E,1,09,1.0,133.2,M,46.7,M,,0000*50

$GPGSA,A,3,09,07,02,06,23,30,16,05,26,,,,2.1,1.0,1.8*37

$GPRMC,120102.000,A,5123.7601,N,01223.6232,E,0.00,339.43,281217,,,A*6D

$GPGGA,120103.000,5123.7601,N,01223.6232,E,1,09,1.0,133.2,M,46.7,M,,0000*51

$GPGSA,A,3,09,07,02,06,23,30,16,05,26,,,,2.1,1.0,1.8*37

$GPRMC,120103.000,A,5123.7601,N,01223.6232,E,0.00,339.43,281217,,,A*6C

$GPGGA,120104.000,5123.7601,N,01223.6232,E,1,09,1.0,133.2,M,46.7,M,,0000*56

$GPGSA,A,3,09,07,02,06,23,30,16,05,26,,,,2.1,1.0,1.8*37

$GPGSV,3,1,12,09,72,069,35,07,56,172,29,02,38,276,29,06,38,227,25*7A

$GPGSV,3,2,12,23,37,077,34,30,31,194,31,16,20,056,31,05,20,303,33*75

$GPGSV,3,3,12,26,10,028,32,03,03,129,15,29,06,333,20,04,29,303,*79

$GPRMC,120104.000,A,5123.7601,N,01223.6232,E,0.00,339.43,281217,,,A*6B

$GPGGA,120105.000,5123.7601,N,01223.6232,E,1,09,1.0,133.2,M,46.7,M,,0000*57

$GPGSA,A,3,09,07,02,06,23,30,16,05,26,,,,2.1,1.0,1.8*37

$GPRMC,120105.000,A,5123.7601,N,01223.6232,E,0.00,339.43,281217,,,A*6A

$GPGGA,120106.000,5123.7601,N,01223.6232,E,1,09,1.0,133.2,M,46.7,M,,0000*54

$GPGSA,A,3,09,07,02,06,23,30,16,05,26,,,,2.1,1.0,1.8*37

$GPRMC,120106.000,A,5123.7601,N,01223.6232,E,0.00,339.43,281217,,,A*69

$GPGGA,120107.000,5123.7601,N,01223.6232,E,1,09,1.0,133.2,M,46.7,M,,0000*55

$GPGSA,A,3,09,07,02,06,23,30,16,05,26,,,,2.1,1.0,1.8*37

$GPRMC,120107.000,A,5123.7601,N,01223.6232,E,0.00,339.43,281217,,,A*68

$GPGGA,120108.000,5123.7601,N,01223.6232,E,1,09,1.0,133.2,M,46.7,M,,0000*5A

$GPGSA,A,3,09,07,02,06,23,30,16,05,26,,,,2.1,1.0,1.8*37

$GPRMC,120108.000,A,5123.7601,N,01223.6232,E,0.00,339.43,281217,,,A*67

$GPGGA,120109.000,5123.7601,N,01223.6232,E,1,09,1.0,133.2,M,46.7,M,,0000*5B

$GPGSA,A,3,09,07,02,06,23,30,16,05,26,,,,2.1,1.0,1.8*37

$GPGSV,3,1,12,09,72,069,35,07,56,172,29,02,38,276,29,06,38,227,25*7A

$GPGSV,3,2,12,23,37,077,34,30,31,194,31,16,20,056,31,05,20,303,33*75

$GPGSV,3,3,12,26,10,028,32,03,03,129,10,29,06,333,13,04,29,303,*7C

$GPRMC,120109.000,A,5123.7601,N,01223.6232,E,0.00,339.43,281217,,,A*66

$GPGGA,120110.000,5123.7601,N,01223.6232,E,1,09,1.0,133.2,M,46.7,M,,0000*53

$GPGSA,A,3,09,07,02,06,23,30,16,05,26,,,,2.1,1.0,1.8*37

$GPRMC,120110.000,A,5123.7601,N,01223.6232,E,0.00,339.43,281217,,,A*6E

$GPGGA,120111.000,5123.7601,N,01223.6232,E,1,09,1.0,133.2,M,46.7,M,,0000*52

$GPGSA,A,3,09,07,02,06,23,30,16,05,26,,,,2.1,1.0,1.8*37

$GPRMC,120111.000,A,5123.7601,N,01223.6232,E,0.00,339.43,281217,,,A*6F

$GPGGA,120112.000,5123.7601,N,01223.6232,E,1,09,1.0,133.2,M,46.7,M,,0000*51

$GPGSA,A,3,09,07,02,06,23,30,16,05,26,,,,2.1,1.0,1.8*37

$GPRMC,120112.000,A,5123.7601,N,01223.6232,E,0.00,339.43,281217,,,A*6C

$GPGGA,120113.000,5123.7601,N,01223.6232,E,1,09,1.0,133.2,M,46.7,M,,0000*50

$GPGSA,A,3,09,07,02,06,23,30,16,05,26,,,,2.1,1.0,1.8*37

$GPRMC,120113.000,A,5123.7601,N,01223.6232,E,0.00,339.43,281217,,,A*6D

$GPGGA,120114.000,5123.7601,N,01223.6232,E,1,09,1.0,133.2,M,46.7,M,,0000*57

$GPGSA,A,3,09,07,02,06,23,30,16,05,26,,,,2.1,1.0,1.8*37

$GPGSV,3,1,12,09,72,069,35,07,56,172,29,02,38,276,29,06,38,227,25*7A

$GPGSV,3,2,12,23,37,077,34,30,31,194,25,16,20,056,31,05,20,303,33*70

$GPGSV,3,3,12,26,10,028,32,03,03,129,11,29,06,332,14,04,29,303,*7B

$GPRMC,120114.000,A,5123.7601,N,01223.6232,E,0.00,339.43,281217,,,A*6A

$GPGGA,120115.000,5123.7601,N,01223.6232,E,1,09,1.0,133.2,M,46.7,M,,0000*56

$GPGSA,A,3,09,07,02,06,23,30,16,05,26,,,,2.1,1.0,1.8*37

$GPRMC,120115.000,A,5123.7601,N,01223.6232,E,0.00,339.43,281217,,,A*6B

$GPGGA,120116.000,5123.7601,N,01223.6232,E,1,09,1.0,133.2,M,46.7,M,,0000*55

$GPGSA,A,3,09,07,02,06,23,30,16,05,26,,,,2.1,1.0,1.8*37

$GPRMC,120116.000,A,5123.7601,N,01223.6232,E,0.00,339.43,281217,,,A*68

$GPGGA,120117.000,5123.7601,N,01223.6232,E,1,09,1.0,133.2,M,46.7,M,,0000*54

$GPGSA,A,3,09,07,02,06,23,30,16,05,26,,,,2.1,1.0,1.8*37

$GPRMC,120117.000,A,5123.7601,N,01223.6232,E,0.00,339.43,281217,,,A*69

$GPGGA,120118.000,5123.7601,N,01223.6232,E,1,09,1.0,133.2,M,46.7,M,,0000*5B

$GPGSA,A,3,09,07,02,06,23,30,16,05,26,,,,2.1,1.0,1.8*37

$GPRMC,120118.000,A,5123.7601,N,01223.6232,E,0.00,339.43,281217,,,A*66

$GPGGA,120119.000,5123.7601,N,01223.6232,E,1,09,1.0,133.2,M,46.7,M,,0000*5A

$GPGSA,A,3,09,07,02,06,23,30,16,05,26,,,,2.1,1.0,1.8*37

$GPGSV,3,1,12,09,72,069,35,07,56,172,29,02,38,276,29,06,38,227,25*7A

$GPGSV,3,2,12,23,37,077,34,30,31,194,30,16,20,056,31,05,20,303,33*74

$GPGSV,3,3,12,26,10,028,32,03,03,129,14,29,06,332,14,04,29,303,*7E

$GPRMC,120119.000,A,5123.7601,N,01223.6232,E,0.00,339.43,281217,,,A*67

$GPGGA,120120.000,5123.7601,N,01223.6232,E,1,09,1.0,133.2,M,46.7,M,,0000*50

$GPGSA,A,3,09,07,02,06,23,30,16,05,26,,,,2.1,1.0,1.8*37

$GPRMC,120120.000,A,5123.7601,N,01223.6232,E,0.00,339.43,281217,,,A*6D

$GPGGA,120121.000,5123.7601,N,01223.6232,E,1,09,1.0,133.2,M,46.7,M,,0000*51

$GPGSA,A,3,09,07,02,06,23,30,16,05,26,,,,2.1,1.0,1.8*37

$GPRMC,120121.000,A,5123.7601,N,01223.6232,E,0.00,339.43,281217,,,A*6C

$GPGGA,120122.000,5123.7601,N,01223.6232,E,1,09,1.0,133.2,M,46.7,M,,0000*52

$GPGSA,A,3,09,07,02,06,23,30,16,05,26,,,,2.1,1.0,1.8*37

$GPRMC,120122.000,A,5123.7601,N,01223.6232,E,0.00,339.43,281217,,,A*6F

$GPGGA,120123.000,5123.7601,N,01223.6232,E,1,09,1.0,133.2,M,46.7,M,,0000*53

$GPGSA,A,3,09,07,02,06,23,30,16,05,26,,,,2.1,1.0,1.8*37

$GPRMC,120123.000,A,5123.7601,N,01223.6232,E,0.00,339.43,281217,,,A*6E

$GPGGA,120124.000,5123.7601,N,01223.6232,E,1,09,1.0,133.2,M,46.7,M,,0000*54

$GPGSA,A,3,09,07,02,06,23,30,16,05,26,,,,2.1,1.0,1.8*37

$GPGSV,3,1,12,09,72,069,35,07,56,172,29,02,38,276,29,06,38,227,25*7A

$GPGSV,3,2,12,23,37,077,34,30,31,194,31,16,20,056,30,05,20,303,33*74

$GPGSV,3,3,12,26,10,028,32,03,03,129,17,29,06,332,22,04,29,303,*78

$GPRMC,120124.000,A,5123.7601,N,01223.6232,E,0.00,339.43,281217,,,A*69

$GPGGA,120125.000,5123.7601,N,01223.6232,E,1,09,1.0,133.2,M,46.7,M,,0000*55

$GPGSA,A,3,09,07,02,06,23,30,16,05,26,,,,2.1,1.0,1.8*37

$GPRMC,120125.000,A,5123.7601,N,01223.6232,E,0.00,339.43,281217,,,A*68

$GPGGA,120126.000,5123.7601,N,01223.6232,E,1,09,1.0,133.2,M,46.7,M,,0000*56

$GPGSA,A,3,09,07,02,06,23,30,16,05,26,,,,2.1,1.0,1.8*37

$GPRMC,120126.000,A,5123.7601,N,01223.6232,E,0.00,339.43,281217,,,A*6B

$GPGGA,120127.000,5123.7601,N,01223.6232,E,1,09,1.0,133.2,M,46.7,M,,0000*57

$GPGSA,A,3,09,07,02,06,23,30,16,05,26,,,,2.1,1.0,1.8*37

$GPRMC,120127.000,A,5123.7601,N,01223.6232,E,0.00,339.43,281217,,,A*6A

$GPGGA,120128.000,5123.7601,N,01223.6232,E,1,09,1.0,133.2,M,46.7,M,,0000*58

$GPGSA,A,3,09,07,02,06,23,30,16,05,26,,,,2.1,1.0,1.8*37

$GPRMC,120128.000,A,5123.7601,N,01223.6232,E,0.00,339.43,281217,,,A*65

$GPGGA,120129.000,5123.7601,N,01223.6232,E,1,09,1.0,133.2,M,46.7,M,,0000*59

$GPGSA,A,3,09,07,02,06,23,30,16,05,26,,,,2.1,1.0,1.8*37

$GPGSV,3,1,12,09,72,069,35,07,57,172,23,02,38,276,29,06,37,227,26*7D

$GPGSV,3,2,12,23,36,078,34,30,31,194,32,16,20,056,30,05,20,303,33*79

$GPGSV,3,3,12,26,10,028,31,03,03,129,17,29,06,332,17,04,29,303,*7D

$GPRMC,120129.000,A,5123.7601,N,01223.6232,E,0.00,339.43,281217,,,A*64

$GPGGA,120130.000,5123.7601,N,01223.6232,E,1,09,1.0,133.2,M,46.7,M,,0000*51

$GPGSA,A,3,09,07,02,06,23,30,16,05,26,,,,2.1,1.0,1.8*37

$GPRMC,120130.000,A,5123.7601,N,01223.6232,E,0.00,339.43,281217,,,A*6C

$GPGGA,120131.000,5123.7601,N,01223.6232,E,1,09,1.0,133.2,M,46.7,M,,0000*50

$GPGSA,A,3,09,07,02,06,23,30,16,05,26,,,,2.1,1.0,1.8*37

$GPRMC,120131.000,A,5123.7601,N,01223.6232,E,0.00,339.43,281217,,,A*6D

$GPGGA,120132.000,5123.7600,N,01223.6231,E,1,09,1.0,133.2,M,46.7,M,,0000*51

$GPGSA,A,3,09,07,02,06,23,30,16,05,26,,,,2.1,1.0,1.8*37

$GPRMC,120132.000,A,5123.7600,N,01223.6231,E,0.26,339.43,281217,,,A*68

$GPGGA,120133.000,5123.7598,N,01223.6231,E,1,09,1.0,133.3,M,46.7,M,,0000*53

$GPGSA,A,3,09,07,02,06,23,30,16,05,26,,,,2.1,1.0,1.8*37

$GPRMC,120133.000,A,5123.7598,N,01223.6231,E,0.52,339.43,281217,,,A*68

$GPGGA,120134.000,5123.7597,N,01223.6230,E,1,09,1.0,133.4,M,46.7,M,,0000*5D

$GPGSA,A,3,09,07,02,06,23,30,16,05,29,,,,2.1,1.0,1.8*38

$GPGSV,3,1,12,09,72,069,25,07,57,172,35,02,38,276,30,06,37,227,35*71

$GPGSV,3,2,12,23,36,078,27,30,31,194,32,16,20,056,22,05,20,303,34*7F

$GPGSV,3,3,12,29,06,332,27,03,03,129,26,26,10,028,07,04,29,303,*79

$GPRMC,120134.000,A,5123.7597,N,01223.6230,E,0.29,339.43,281217,,,A*6D

$GPGGA,120135.000,5123.7597,N,01223.6231,E,1,09,1.0,133.3,M,46.7,M,,0000*5A

$GPGSA,A,3,09,07,02,06,23,30,16,05,29,,,,2.1,1.0,1.8*38

$GPRMC,120135.000,A,5123.7597,N,01223.6231,E,0.00,339.43,281217,,,A*66

$GPGGA,120136.000,5123.7597,N,01223.6231,E,1,10,1.0,133.4,M,46.7,M,,0000*56

$GPGSA,A,3,09,07,02,06,23,30,16,05,26,29,,,2.0,1.0,1.7*32

$GPRMC,120136.000,A,5123.7597,N,01223.6231,E,0.18,339.43,281217,,,A*6C

$GPGGA,120137.000,5123.7598,N,01223.6230,E,1,10,1.0,133.4,M,46.7,M,,0000*59

$GPGSA,A,3,09,07,02,06,23,30,16,05,26,29,,,2.0,1.0,1.7*32

$GPRMC,120137.000,A,5123.7598,N,01223.6230,E,0.69,339.43,281217,,,A*65

$GPGGA,120138.000,5123.7599,N,01223.6230,E,1,10,1.0,133.5,M,46.7,M,,0000*56

$GPGSA,A,3,09,07,02,06,23,30,16,05,26,29,,,2.0,1.0,1.7*32

$GPRMC,120138.000,A,5123.7599,N,01223.6230,E,0.25,339.43,281217,,,A*63

$GPGGA,120139.000,5123.7599,N,01223.6232,E,1,10,1.0,133.6,M,46.7,M,,0000*56

$GPGSA,A,3,09,07,02,06,23,30,16,05,26,29,,,2.0,1.0,1.7*32

$GPGSV,3,1,12,09,72,069,34,07,57,172,33,02,38,276,30,06,37,227,33*71

$GPGSV,3,2,12,23,36,078,22,30,31,194,35,16,20,056,22,05,20,303,33*7A

$GPGSV,3,3,12,26,10,028,22,29,06,332,30,03,03,129,23,04,29,303,*7D

$GPRMC,120139.000,A,5123.7599,N,01223.6232,E,0.64,339.43,281217,,,A*65

$GPGGA,120140.000,5123.7599,N,01223.6233,E,1,10,1.0,133.7,M,46.7,M,,0000*58

$GPGSA,A,3,09,07,02,06,23,30,16,05,26,29,,,2.0,1.0,1.7*32

$GPRMC,120140.000,A,5123.7599,N,01223.6233,E,0.27,339.43,281217,,,A*6D

$GPGGA,120141.000,5123.7599,N,01223.6233,E,1,10,1.0,133.6,M,46.7,M,,0000*58

$GPGSA,A,3,09,07,02,06,23,30,16,05,26,29,,,2.0,1.0,1.7*32

$GPRMC,120141.000,A,5123.7599,N,01223.6233,E,0.03,339.43,281217,,,A*6A

$GPGGA,120142.000,5123.7599,N,01223.6233,E,1,10,1.0,133.6,M,46.7,M,,0000*5B

$GPGSA,A,3,09,07,02,06,23,30,16,05,26,29,,,2.0,1.0,1.7*32

$GPRMC,120142.000,A,5123.7599,N,01223.6233,E,0.01,339.43,281217,,,A*6B

$GPGGA,120143.000,5123.7599,N,01223.6233,E,1,10,1.0,133.6,M,46.7,M,,0000*5A

$GPGSA,A,3,09,07,02,06,23,30,16,05,26,29,,,2.0,1.0,1.7*32

$GPRMC,120143.000,A,5123.7599,N,01223.6233,E,0.00,339.43,281217,,,A*6B

$GPGGA,120144.000,5123.7599,N,01223.6233,E,1,10,1.0,133.6,M,46.7,M,,0000*5D

$GPGSA,A,3,09,07,02,06,23,30,16,05,26,29,,,2.0,1.0,1.7*32

$GPGSV,3,1,12,09,72,069,35,07,57,172,34,02,38,276,24,06,37,227,33*72

$GPGSV,3,2,12,23,36,078,37,30,31,194,34,16,20,056,31,05,20,303,24*7B

$GPGSV,3,3,12,26,10,028,23,29,06,332,21,03,03,129,23,04,29,303,*7C

$GPRMC,120144.000,A,5123.7599,N,01223.6233,E,0.00,339.43,281217,,,A*6C

$GPGGA,120145.000,5123.7599,N,01223.6233,E,1,10,1.0,133.6,M,46.7,M,,0000*5C

$GPGSA,A,3,09,07,02,06,23,30,16,05,26,29,,,2.0,1.0,1.7*32

$GPRMC,120145.000,A,5123.7599,N,01223.6233,E,0.00,339.43,281217,,,A*6D

$GPGGA,120146.000,5123.7599,N,01223.6233,E,1,09,1.0,133.6,M,46.7,M,,0000*57

$GPGSA,A,3,09,07,02,06,23,30,16,05,26,,,,2.1,1.0,1.8*37

$GPRMC,120146.000,A,5123.7599,N,01223.6233,E,0.00,339.43,281217,,,A*6E

$GPGGA,120147.000,5123.7598,N,01223.6233,E,1,10,1.0,133.6,M,46.7,M,,0000*5F

$GPGSA,A,3,09,07,02,06,23,30,16,05,26,29,,,2.0,1.0,1.7*32

$GPRMC,120147.000,A,5123.7598,N,01223.6233,E,0.00,339.43,281217,,,A*6E

$GPGGA,120148.000,5123.7598,N,01223.6233,E,1,10,1.0,133.6,M,46.7,M,,0000*50

$GPGSA,A,3,09,07,02,06,23,30,16,05,26,29,,,2.0,1.0,1.7*32

$GPRMC,120148.000,A,5123.7598,N,01223.6233,E,0.00,339.43,281217,,,A*61

$GPGGA,120149.000,5123.7598,N,01223.6232,E,1,09,1.0,133.7,M,46.7,M,,0000*59

$GPGSA,A,3,09,07,02,06,23,30,05,26,29,,,,2.1,1.0,1.8*3B

$GPGSV,3,1,12,09,72,069,41,07,57,172,34,02,38,276,28,06,37,227,36*78

$GPGSV,3,2,12,23,36,078,36,30,31,194,30,05,20,303,29,26,10,028,20*7A

$GPGSV,3,3,12,29,06,332,26,03,03,129,28,16,20,056,29,04,29,303,*73

$GPRMC,120149.000,A,5123.7598,N,01223.6232,E,0.41,339.43,281217,,,A*64

$GPGGA,120150.000,5123.7598,N,01223.6233,E,1,10,1.0,133.7,M,46.7,M,,0000*58

$GPGSA,A,3,09,07,02,06,23,30,16,05,26,29,,,2.0,1.0,1.7*32

$GPRMC,120150.000,A,5123.7598,N,01223.6233,E,0.30,339.43,281217,,,A*6B

$GPGGA,120151.000,5123.7598,N,01223.6233,E,1,10,1.0,133.7,M,46.7,M,,0000*59

$GPGSA,A,3,09,07,02,06,23,30,16,05,26,29,,,2.0,1.0,1.7*32

$GPRMC,120151.000,A,5123.7598,N,01223.6233,E,0.00,339.43,281217,,,A*69

$GPGGA,120152.000,5123.7598,N,01223.6233,E,1,10,1.0,133.7,M,46.7,M,,0000*5A

$GPGSA,A,3,09,07,02,06,23,30,16,05,26,29,,,2.0,1.0,1.7*32

$GPRMC,120152.000,A,5123.7598,N,01223.6233,E,0.00,339.43,281217,,,A*6A

$GPGGA,120153.000,5123.7597,N,01223.6232,E,1,10,1.0,133.8,M,46.7,M,,0000*5A

$GPGSA,A,3,09,07,02,06,23,30,16,05,26,29,,,2.0,1.0,1.7*32

$GPRMC,120153.000,A,5123.7597,N,01223.6232,E,0.18,339.43,281217,,,A*6C

$GPGGA,120154.000,5123.7598,N,01223.6232,E,1,09,1.0,133.9,M,46.7,M,,0000*5B

$GPGSA,A,3,09,07,02,06,23,30,16,05,29,,,,2.1,1.0,1.8*38

$GPGSV,3,1,12,09,72,069,39,07,57,172,35,02,38,276,28,06,37,227,35*75

$GPGSV,3,2,12,23,36,078,35,30,31,194,27,16,20,056,33,05,20,303,29*74

$GPGSV,3,3,12,29,06,332,16,03,03,129,29,04,29,303,,26,10,028,*73

$GPRMC,120154.000,A,5123.7598,N,01223.6232,E,0.58,339.43,281217,,,A*60

$GPGGA,120155.000,5123.7599,N,01223.6232,E,1,09,1.0,134.0,M,46.7,M,,0000*55

$GPGSA,A,3,09,07,02,06,23,30,16,05,29,,,,2.1,1.0,1.8*38

$GPRMC,120155.000,A,5123.7599,N,01223.6232,E,0.48,339.43,281217,,,A*61

$GPGGA,120156.000,5123.7599,N,01223.6232,E,1,10,1.0,134.0,M,46.7,M,,0000*5E

$GPGSA,A,3,09,07,02,06,23,30,16,05,26,29,,,2.0,1.0,1.7*32

$GPRMC,120156.000,A,5123.7599,N,01223.6232,E,0.30,339.43,281217,,,A*6D

$GPGGA,120157.000,5123.7597,N,01223.6232,E,1,09,1.0,134.1,M,46.7,M,,0000*58

$GPGSA,A,3,09,07,02,06,23,30,16,05,29,,,,2.1,1.0,1.8*38

$GPRMC,120157.000,A,5123.7597,N,01223.6232,E,0.99,339.43,281217,,,A*61

$GPGGA,120158.000,5123.7595,N,01223.6232,E,1,09,1.0,134.3,M,46.7,M,,0000*57

$GPGSA,A,3,09,07,02,06,23,30,16,05,29,,,,2.1,1.0,1.8*38

$GPRMC,120158.000,A,5123.7595,N,01223.6232,E,0.74,339.43,281217,,,A*6F

$GPGGA,120159.000,5123.7595,N,01223.6232,E,1,09,1.0,134.2,M,46.7,M,,0000*57

$GPGSA,A,3,09,07,02,06,23,30,16,05,29,,,,2.1,1.0,1.8*38

$GPGSV,3,1,12,09,72,069,41,07,57,172,39,02,38,276,37,06,37,227,33*7E

$GPGSV,3,2,12,23,36,078,37,30,31,194,37,16,20,056,35,05,20,303,33*7A

$GPGSV,3,3,12,29,06,332,24,03,03,129,30,04,29,303,29,26,10,028,29*7A

$GPRMC,120159.000,A,5123.7595,N,01223.6232,E,0.10,339.43,281217,,,A*6C

$GPGGA,120200.000,5123.7595,N,01223.6232,E,1,09,1.0,134.2,M,46.7,M,,0000*58

$GPGSA,A,3,09,07,02,06,30,16,05,26,29,,,,2.0,1.0,1.7*33

$GPRMC,120200.000,A,5123.7595,N,01223.6232,E,0.06,339.43,281217,,,A*64

$GPGGA,120201.000,5123.7595,N,01223.6232,E,1,08,1.2,134.1,M,46.7,M,,0000*59

$GPGSA,A,3,09,07,06,23,30,16,26,29,,,,,2.3,1.2,1.9*3A

$GPRMC,120201.000,A,5123.7595,N,01223.6232,E,0.00,339.43,281217,,,A*63

$GPGGA,120202.000,5123.7593,N,01223.6231,E,1,08,1.2,134.3,M,46.7,M,,0000*5D

$GPGSA,A,3,09,07,06,23,30,16,26,29,,,,,2.3,1.2,1.9*3A

$GPRMC,120202.000,A,5123.7593,N,01223.6231,E,0.10,339.43,281217,,,A*64

$GPGGA,120203.000,5123.7592,N,01223.6229,E,1,08,1.2,134.7,M,46.7,M,,0000*50

$GPGSA,A,3,09,07,06,23,30,16,26,29,,,,,2.3,1.2,1.9*3A

$GPRMC,120203.000,A,5123.7592,N,01223.6229,E,0.19,339.43,281217,,,A*64

$GPGGA,120204.000,5123.7592,N,01223.6229,E,1,08,1.2,134.7,M,46.7,M,,0000*57

$GPGSA,A,3,09,07,06,23,30,16,26,29,,,,,2.3,1.2,1.9*3A

$GPGSV,3,1,12,09,72,069,36,07,57,172,31,06,37,227,37,23,36,078,32*76

$GPGSV,3,2,12,30,31,194,31,16,20,056,32,26,10,028,29,29,06,332,26*7C

$GPGSV,3,3,12,05,20,303,19,02,38,276,,04,29,303,,03,03,129,*7A

$GPRMC,120204.000,A,5123.7592,N,01223.6229,E,0.01,339.43,281217,,,A*6A

$GPGGA,120205.000,5123.7592,N,01223.6229,E,1,07,1.6,134.7,M,46.7,M,,0000*5D

$GPGSA,A,3,09,07,06,23,16,26,29,,,,,,2.9,1.6,2.4*39

$GPRMC,120205.000,A,5123.7592,N,01223.6229,E,0.12,339.43,281217,,,A*69

$GPGGA,120206.000,5123.7592,N,01223.6229,E,1,08,1.4,134.7,M,46.7,M,,0000*53

$GPGSA,A,3,09,07,02,06,23,16,26,29,,,,,2.7,1.4,2.2*31

$GPRMC,120206.000,A,5123.7592,N,01223.6229,E,0.01,339.43,281217,,,A*68

$GPGGA,120207.000,5123.7592,N,01223.6229,E,1,08,1.4,134.7,M,46.7,M,,0000*52

$GPGSA,A,3,09,07,02,06,23,16,26,29,,,,,2.7,1.4,2.2*31

$GPRMC,120207.000,A,5123.7592,N,01223.6229,E,0.00,339.43,281217,,,A*68

$GPGGA,120208.000,5123.7592,N,01223.6229,E,1,08,1.4,134.7,M,46.7,M,,0000*5D

$GPGSA,A,3,09,07,02,06,23,16,26,29,,,,,2.7,1.4,2.2*31

$GPRMC,120208.000,A,5123.7592,N,01223.6229,E,0.00,339.43,281217,,,A*67

$GPGGA,120209.000,5123.7592,N,01223.6229,E,1,10,1.0,134.7,M,46.7,M,,0000*51

$GPGSA,A,3,09,07,02,06,23,30,16,05,26,29,,,2.0,1.0,1.7*32

$GPGSV,3,1,12,09,72,069,38,07,57,172,32,02,38,276,30,06,37,227,30*7F

$GPGSV,3,2,12,23,36,078,33,30,31,194,23,16,20,056,32,05,20,303,25*7B

$GPGSV,3,3,12,26,10,028,31,29,06,332,21,03,03,129,25,04,29,303,*79

$GPRMC,120209.000,A,5123.7592,N,01223.6229,E,0.18,339.43,281217,,,A*6F

$GPGGA,120210.000,5123.7592,N,01223.6230,E,1,10,1.0,134.7,M,46.7,M,,0000*51

$GPGSA,A,3,09,07,02,06,23,30,16,05,26,29,,,2.0,1.0,1.7*32

$GPRMC,120210.000,A,5123.7592,N,01223.6230,E,0.02,339.43,281217,,,A*64

$GPGGA,120211.000,5123.7591,N,01223.6232,E,1,10,1.0,134.6,M,46.7,M,,0000*50

$GPGSA,A,3,09,07,02,06,23,30,16,05,26,29,,,2.0,1.0,1.7*32

$GPRMC,120211.000,A,5123.7591,N,01223.6232,E,0.25,339.43,281217,,,A*61

$GPGGA,120212.000,5123.7591,N,01223.6232,E,1,07,1.6,134.6,M,46.7,M,,0000*53

$GPGSA,A,3,09,07,02,06,23,16,26,,,,,,2.8,1.6,2.3*36

$GPRMC,120212.000,A,5123.7591,N,01223.6232,E,0.04,339.43,281217,,,A*61

$GPGGA,120213.000,5123.7591,N,01223.6232,E,1,09,1.1,134.6,M,46.7,M,,0000*5B

$GPGSA,A,3,09,07,02,06,23,30,16,26,29,,,,2.0,1.1,1.7*36

$GPRMC,120213.000,A,5123.7591,N,01223.6232,E,0.00,339.43,281217,,,A*64

$GPGGA,120214.000,5123.7591,N,01223.6232,E,1,10,1.0,134.6,M,46.7,M,,0000*55

$GPGSA,A,3,09,07,02,06,23,30,05,16,26,29,,,2.0,1.0,1.7*32

$GPGSV,3,1,12,09,71,069,38,07,57,172,34,02,38,275,36,06,37,226,28*77

$GPGSV,3,2,12,23,36,078,33,30,31,194,28,05,20,303,23,16,20,055,32*75

$GPGSV,3,3,12,26,10,028,32,29,06,332,14,03,03,129,26,04,29,303,*7F

$GPRMC,120214.000,A,5123.7591,N,01223.6232,E,0.00,339.43,281217,,,A*63

$GPGGA,120215.000,5123.7591,N,01223.6232,E,1,10,1.0,134.6,M,46.7,M,,0000*54

$GPGSA,A,3,09,07,02,06,23,30,05,16,26,29,,,2.0,1.0,1.7*32

$GPRMC,120215.000,A,5123.7591,N,01223.6232,E,0.00,339.43,281217,,,A*62

$GPGGA,120216.000,5123.7591,N,01223.6232,E,1,10,1.0,134.6,M,46.7,M,,0000*57

$GPGSA,A,3,09,07,02,06,23,30,05,16,26,29,,,2.0,1.0,1.7*32

$GPRMC,120216.000,A,5123.7591,N,01223.6232,E,0.00,339.43,281217,,,A*61

$GPGGA,120217.000,5123.7591,N,01223.6232,E,1,10,1.0,134.6,M,46.7,M,,0000*56

$GPGSA,A,3,09,07,02,06,23,30,05,16,26,29,,,2.0,1.0,1.7*32

$GPRMC,120217.000,A,5123.7591,N,01223.6232,E,0.00,339.43,281217,,,A*60

$GPGGA,120218.000,5123.7591,N,01223.6232,E,1,10,1.0,134.6,M,46.7,M,,0000*59

$GPGSA,A,3,09,07,02,06,23,30,05,16,26,29,,,2.0,1.0,1.7*32

$GPRMC,120218.000,A,5123.7591,N,01223.6232,E,0.00,339.43,281217,,,A*6F

$GPGGA,120219.000,5123.7591,N,01223.6232,E,1,10,1.0,134.6,M,46.7,M,,0000*58

$GPGSA,A,3,09,07,02,06,23,30,05,16,26,29,,,2.0,1.0,1.7*32

$GPGSV,3,1,12,09,71,069,39,07,57,172,34,02,38,275,36,06,37,226,20*7E

$GPGSV,3,2,12,23,36,078,32,30,31,194,27,05,20,303,24,16,20,055,32*7C

$GPGSV,3,3,12,26,10,028,32,29,06,332,13,03,03,129,28,04,29,303,*76

$GPRMC,120219.000,A,5123.7591,N,01223.6232,E,0.00,339.43,281217,,,A*6E

$GPGGA,120220.000,5123.7591,N,01223.6232,E,1,10,1.0,134.6,M,46.7,M,,0000*52

$GPGSA,A,3,09,07,02,06,23,30,05,16,26,29,,,2.0,1.0,1.7*32

$GPRMC,120220.000,A,5123.7591,N,01223.6232,E,0.00,339.43,281217,,,A*64

$GPGGA,120221.000,5123.7591,N,01223.6232,E,1,10,1.0,134.6,M,46.7,M,,0000*53

$GPGSA,A,3,09,07,02,06,23,30,05,16,26,29,,,2.0,1.0,1.7*32

$GPRMC,120221.000,A,5123.7591,N,01223.6232,E,0.00,339.43,281217,,,A*65

$GPGGA,120222.000,5123.7591,N,01223.6232,E,1,10,1.0,134.6,M,46.7,M,,0000*50

$GPGSA,A,3,09,07,02,06,23,30,05,16,26,29,,,2.0,1.0,1.7*32

$GPRMC,120222.000,A,5123.7591,N,01223.6232,E,0.00,339.43,281217,,,A*66

$GPGGA,120223.000,5123.7591,N,01223.6232,E,1,10,1.0,134.6,M,46.7,M,,0000*51

$GPGSA,A,3,09,07,02,06,23,30,05,16,26,29,,,2.0,1.0,1.7*32

$GPRMC,120223.000,A,5123.7591,N,01223.6232,E,0.00,339.43,281217,,,A*67

$GPGGA,120224.000,5123.7591,N,01223.6232,E,1,10,1.0,134.6,M,46.7,M,,0000*56

$GPGSA,A,3,09,07,02,06,23,30,05,16,26,29,,,2.0,1.0,1.7*32

$GPGSV,3,1,12,09,71,069,39,07,57,172,35,02,38,275,36,06,37,226,21*7E

$GPGSV,3,2,12,23,36,078,26,30,31,194,27,05,20,303,22,16,20,055,31*7C

$GPGSV,3,3,12,26,10,028,32,29,06,332,20,03,03,129,23,04,29,303,*7D

$GPRMC,120224.000,A,5123.7591,N,01223.6232,E,0.00,339.43,281217,,,A*60

$GPGGA,120225.000,5123.7591,N,01223.6232,E,1,10,1.0,134.6,M,46.7,M,,0000*57

$GPGSA,A,3,09,07,02,06,23,30,05,16,26,29,,,2.0,1.0,1.7*32

$GPRMC,120225.000,A,5123.7591,N,01223.6232,E,0.13,339.43,281217,,,A*63

$GPGGA,120226.000,5123.7591,N,01223.6232,E,1,10,1.0,134.6,M,46.7,M,,0000*54

$GPGSA,A,3,09,07,02,06,23,30,05,16,26,29,,,2.0,1.0,1.7*32

$GPRMC,120226.000,A,5123.7591,N,01223.6232,E,0.01,339.43,281217,,,A*63

$GPGGA,120227.000,5123.7591,N,01223.6232,E,1,10,1.0,134.6,M,46.7,M,,0000*55

$GPGSA,A,3,09,07,02,06,23,30,05,16,26,29,,,2.0,1.0,1.7*32

$GPRMC,120227.000,A,5123.7591,N,01223.6232,E,0.00,339.43,281217,,,A*63

$GPGGA,120228.000,5123.7591,N,01223.6232,E,1,10,1.0,134.6,M,46.7,M,,0000*5A

$GPGSA,A,3,09,07,02,06,23,30,05,16,26,29,,,2.0,1.0,1.7*32

